[{"id": "UH67M7QseHepI-k1c6tjJA", "alias": "brother-s-fish-house-port-charlotte", "name": "Brother\u2019s Fish House", "image_url": "https://s3-media3.fl.yelpcdn.com/bphoto/7m798jPqiDD4qyH-MAnk5w/o.jpg", "is_closed": false, "url": "https://www.yelp.com/biz/brother-s-fish-house-port-charlotte?adjust_creative=IX0BPgmwhVVbGGNYDVN81A&utm_campaign=yelp_api_v3&utm_medium=api_v3_business_search&utm_source=IX0BPgmwhVVbGGNYDVN81A", "review_count": 107, "categories": [{"alias": "seafood", "title": "Seafood"}, {"alias": "sandwiches", "title": "Sandwiches"}, {"alias": "salad", "title": "Salad"}], "rating": 4.0, "coordinates": {"latitude": 26.97288, "longitude": -82.0875}, "transactions": ["delivery", "pickup"], "price": "$$", "location": {"address1": "3821 Tamiami Trl", "address2": "Ste A", "address3": "", "city": "Port Charlotte", "zip_code": "33952", "country": "US", "state": "FL", "display_address": ["3821 Tamiami Trl", "Ste A", "Port Charlotte, FL 33952"]}, "phone": "+19416271006", "display_phone": "(941) 627-1006", "distance": 3778.615951503416}, {"id": "1CugTx4_Z1rD1Ley18ksFw", "alias": "e-and-l-clam-house-port-charlotte", "name": "E & L Clam House", "image_url": "", "is_closed": false, "url": "https://www.yelp.com/biz/e-and-l-clam-house-port-charlotte?adjust_creative=IX0BPgmwhVVbGGNYDVN81A&utm_campaign=yelp_api_v3&utm_medium=api_v3_business_search&utm_source=IX0BPgmwhVVbGGNYDVN81A", "review_count": 4, "categories": [{"alias": "seafoodmarkets", "title": "Seafood Markets"}], "rating": 5.0, "coordinates": {"latitude": 26.96931, "longitude": -82.0637}, "transactions": [], "price": "$$", "location": {"address1": "23440 Janice Ave", "address2": null, "address3": null, "city": "Port Charlotte", "zip_code": "33980", "country": "US", "state": "FL", "display_address": ["23440 Janice Ave", "Port Charlotte, FL 33980"]}, "phone": "+19413915025", "display_phone": "(941) 391-5025", "distance": 6016.266884964139}, {"id": "HierAwL3ScsGPBFCvbyBxQ", "alias": "rjs-new-england-seafood-port-charlotte", "name": "RJ's New England Seafood", "image_url": "https://s3-media3.fl.yelpcdn.com/bphoto/6TejueHv3BWbY4rHYvo3yg/o.jpg", "is_closed": false, "url": "https://www.yelp.com/biz/rjs-new-england-seafood-port-charlotte?adjust_creative=IX0BPgmwhVVbGGNYDVN81A&utm_campaign=yelp_api_v3&utm_medium=api_v3_business_search&utm_source=IX0BPgmwhVVbGGNYDVN81A", "review_count": 90, "categories": [{"alias": "sandwiches", "title": "Sandwiches"}, {"alias": "seafood", "title": "Seafood"}, {"alias": "fishnchips", "title": "Fish & Chips"}], "rating": 4.0, "coordinates": {"latitude": 27.00664, "longitude": -82.16296}, "transactions": ["delivery"], "price": "$$", "location": {"address1": "17753 Toledo Blade Blvd", "address2": "", "address3": "", "city": "Port Charlotte", "zip_code": "33948", "country": "US", "state": "FL", "display_address": ["17753 Toledo Blade Blvd", "Port Charlotte, FL 33948"]}, "phone": "+19412350005", "display_phone": "(941) 235-0005", "distance": 4652.36169262039}, {"id": "qVNSgp34jdp8Tslye5FksA", "alias": "captain-crab-seafood-and-sushi-port-charlotte", "name": "Captain Crab Seafood and Sushi", "image_url": "https://s3-media2.fl.yelpcdn.com/bphoto/12TTgfT1dzf5w2ctrW2gAA/o.jpg", "is_closed": false, "url": "https://www.yelp.com/biz/captain-crab-seafood-and-sushi-port-charlotte?adjust_creative=IX0BPgmwhVVbGGNYDVN81A&utm_campaign=yelp_api_v3&utm_medium=api_v3_business_search&utm_source=IX0BPgmwhVVbGGNYDVN81A", "review_count": 104, "categories": [{"alias": "seafood", "title": "Seafood"}, {"alias": "sushi", "title": "Sushi Bars"}, {"alias": "bars", "title": "Bars"}], "rating": 3.5, "coordinates": {"latitude": 26.99077, "longitude": -82.11019}, "transactions": ["delivery", "pickup"], "price": "$$", "location": {"address1": "2746 Tamiami Trail", "address2": null, "address3": "", "city": "Port Charlotte", "zip_code": "33952", "country": "US", "state": "FL", "display_address": ["2746 Tamiami Trail", "Port Charlotte, FL 33952"]}, "phone": "+19416256888", "display_phone": "(941) 625-6888", "distance": 874.7788643857876}, {"id": "-pnkbPNoIrTDgrHcjHW7rg", "alias": "the-pier-at-fishermens-village-punta-gorda", "name": "The Pier at Fishermen's Village", "image_url": "https://s3-media1.fl.yelpcdn.com/bphoto/MC_ZSgYQnruqWZt0t6oISA/o.jpg", "is_closed": false, "url": "https://www.yelp.com/biz/the-pier-at-fishermens-village-punta-gorda?adjust_creative=IX0BPgmwhVVbGGNYDVN81A&utm_campaign=yelp_api_v3&utm_medium=api_v3_business_search&utm_source=IX0BPgmwhVVbGGNYDVN81A", "review_count": 286, "categories": [{"alias": "seafood", "title": "Seafood"}, {"alias": "sushi", "title": "Sushi Bars"}, {"alias": "cocktailbars", "title": "Cocktail Bars"}], "rating": 4.0, "coordinates": {"latitude": 26.9284874, "longitude": -82.0628356}, "transactions": ["pickup", "delivery"], "price": "$$", "location": {"address1": "1200 W Retta Esplanade", "address2": "Bdlg 15", "address3": null, "city": "Punta Gorda", "zip_code": "33950", "country": "US", "state": "FL", "display_address": ["1200 W Retta Esplanade", "Bdlg 15", "Punta Gorda, FL 33950"]}, "phone": "+19416558267", "display_phone": "(941) 655-8267", "distance": 9009.385712029036}, {"id": "WvOQKp68UJMSoWHb9IN-UA", "alias": "twin-lobsters-port-charlotte-port-charlotte", "name": "Twin Lobsters - Port Charlotte ", "image_url": "https://s3-media3.fl.yelpcdn.com/bphoto/B1D1fzGep2L74ZSktf9ZzQ/o.jpg", "is_closed": false, "url": "https://www.yelp.com/biz/twin-lobsters-port-charlotte-port-charlotte?adjust_creative=IX0BPgmwhVVbGGNYDVN81A&utm_campaign=yelp_api_v3&utm_medium=api_v3_business_search&utm_source=IX0BPgmwhVVbGGNYDVN81A", "review_count": 3, "categories": [{"alias": "seafoodmarkets", "title": "Seafood Markets"}], "rating": 4.5, "coordinates": {"latitude": 26.97497, "longitude": -82.08781}, "transactions": [], "location": {"address1": "3762 Tamiami Trl", "address2": null, "address3": "", "city": "Port Charlotte", "zip_code": "33952", "country": "US", "state": "FL", "display_address": ["3762 Tamiami Trl", "Port Charlotte, FL 33952"]}, "phone": "+19417668989", "display_phone": "(941) 766-8989", "distance": 3613.235585597111}, {"id": "paBNKV81skf6khy5QpgczA", "alias": "riviera-bar-and-grill-punta-gorda-2", "name": "Riviera Bar & Grill", "image_url": "https://s3-media1.fl.yelpcdn.com/bphoto/NTLBqIT_gj3e_Tb1YF2JSQ/o.jpg", "is_closed": false, "url": "https://www.yelp.com/biz/riviera-bar-and-grill-punta-gorda-2?adjust_creative=IX0BPgmwhVVbGGNYDVN81A&utm_campaign=yelp_api_v3&utm_medium=api_v3_business_search&utm_source=IX0BPgmwhVVbGGNYDVN81A", "review_count": 111, "categories": [{"alias": "bars", "title": "Bars"}, {"alias": "seafood", "title": "Seafood"}, {"alias": "soup", "title": "Soup"}], "rating": 4.0, "coordinates": {"latitude": 26.888231, "longitude": -82.053311}, "transactions": ["delivery", "pickup"], "price": "$$", "location": {"address1": "5500 Deltona Dr", "address2": null, "address3": "", "city": "Punta Gorda", "zip_code": "33950", "country": "US", "state": "FL", "display_address": ["5500 Deltona Dr", "Punta Gorda, FL 33950"]}, "phone": "+19416392633", "display_phone": "(941) 639-2633", "distance": 13273.89295243394}, {"id": "23GCiZPCXqxCD4hTXSgR0A", "alias": "ricks-seafood-charlotte", "name": "Rick's Seafood", "image_url": "", "is_closed": false, "url": "https://www.yelp.com/biz/ricks-seafood-charlotte?adjust_creative=IX0BPgmwhVVbGGNYDVN81A&utm_campaign=yelp_api_v3&utm_medium=api_v3_business_search&utm_source=IX0BPgmwhVVbGGNYDVN81A", "review_count": 2, "categories": [{"alias": "seafoodmarkets", "title": "Seafood Markets"}], "rating": 5.0, "coordinates": {"latitude": 26.99078, "longitude": -82.05311}, "transactions": [], "location": {"address1": "", "address2": "", "address3": "", "city": "Charlotte", "zip_code": "33980", "country": "US", "state": "FL", "display_address": ["Charlotte, FL 33980"]}, "phone": "+19417697205", "display_phone": "(941) 769-7205", "distance": 6703.434428481239}, {"id": "3Mt_QTJC08SfUL48Dw_f_w", "alias": "laishley-crab-house-punta-gorda-2", "name": "Laishley Crab House", "image_url": "https://s3-media2.fl.yelpcdn.com/bphoto/cFRSkfETKwdKJtygnMgs2w/o.jpg", "is_closed": false, "url": "https://www.yelp.com/biz/laishley-crab-house-punta-gorda-2?adjust_creative=IX0BPgmwhVVbGGNYDVN81A&utm_campaign=yelp_api_v3&utm_medium=api_v3_business_search&utm_source=IX0BPgmwhVVbGGNYDVN81A", "review_count": 711, "categories": [{"alias": "seafood", "title": "Seafood"}, {"alias": "sushi", "title": "Sushi Bars"}], "rating": 3.5, "coordinates": {"latitude": 26.938958, "longitude": -82.050582}, "transactions": ["delivery"], "price": "$$", "location": {"address1": "150 Laishley Ct", "address2": "", "address3": "", "city": "Punta Gorda", "zip_code": "33950", "country": "US", "state": "FL", "display_address": ["150 Laishley Ct", "Punta Gorda, FL 33950"]}, "phone": "+19412055566", "display_phone": "(941) 205-5566", "distance": 8993.694051534329}, {"id": "i0_ZnHZjeU5r0j6u7U4rPA", "alias": "mobstah-lobstah-port-charlotte", "name": "Mobstah Lobstah", "image_url": "https://s3-media1.fl.yelpcdn.com/bphoto/h39R4edpUEuHUago247GVw/o.jpg", "is_closed": false, "url": "https://www.yelp.com/biz/mobstah-lobstah-port-charlotte?adjust_creative=IX0BPgmwhVVbGGNYDVN81A&utm_campaign=yelp_api_v3&utm_medium=api_v3_business_search&utm_source=IX0BPgmwhVVbGGNYDVN81A", "review_count": 64, "categories": [{"alias": "foodtrucks", "title": "Food Trucks"}, {"alias": "seafood", "title": "Seafood"}, {"alias": "fishnchips", "title": "Fish & Chips"}], "rating": 4.5, "coordinates": {"latitude": 26.9948387145996, "longitude": -82.2001342773438}, "transactions": [], "price": "$$", "location": {"address1": "", "address2": "", "address3": "", "city": "Port Charlotte", "zip_code": "33953", "country": "US", "state": "FL", "display_address": ["Port Charlotte, FL 33953"]}, "phone": "+19546662911", "display_phone": "(954) 666-2911", "distance": 10608.313457381026}, {"id": "zj1XubkeYznRCbFapL4VGg", "alias": "placida-fish-market-rotonda-fl", "name": "Placida Fish Market", "image_url": "https://s3-media1.fl.yelpcdn.com/bphoto/7hDQSR5-0q25WBI4v5SaWA/o.jpg", "is_closed": false, "url": "https://www.yelp.com/biz/placida-fish-market-rotonda-fl?adjust_creative=IX0BPgmwhVVbGGNYDVN81A&utm_campaign=yelp_api_v3&utm_medium=api_v3_business_search&utm_source=IX0BPgmwhVVbGGNYDVN81A", "review_count": 27, "categories": [{"alias": "seafoodmarkets", "title": "Seafood Markets"}], "rating": 4.5, "coordinates": {"latitude": 26.912826, "longitude": -82.228509}, "transactions": ["delivery"], "price": "$$", "location": {"address1": "31 Chailett Rd", "address2": null, "address3": null, "city": "Rotonda Fl", "zip_code": "33947", "country": "US", "state": "FL", "display_address": ["31 Chailett Rd", "Rotonda Fl, FL 33947"]}, "phone": "+19416976666", "display_phone": "(941) 697-6666", "distance": 14029.295118094697}, {"id": "4MVxmYhPiL8Bh4OZulgDMQ", "alias": "laws-seafood-punta-gorda", "name": "Law's Seafood", "image_url": "https://s3-media2.fl.yelpcdn.com/bphoto/yJA7Dqrg5wqijlU7GPTQnA/o.jpg", "is_closed": false, "url": "https://www.yelp.com/biz/laws-seafood-punta-gorda?adjust_creative=IX0BPgmwhVVbGGNYDVN81A&utm_campaign=yelp_api_v3&utm_medium=api_v3_business_search&utm_source=IX0BPgmwhVVbGGNYDVN81A", "review_count": 13, "categories": [{"alias": "seafoodmarkets", "title": "Seafood Markets"}], "rating": 3.5, "coordinates": {"latitude": 26.9072609, "longitude": -82.0399323}, "transactions": [], "price": "$$", "location": {"address1": "108 Rio Villa Dr", "address2": "", "address3": "", "city": "Punta Gorda", "zip_code": "33950", "country": "US", "state": "FL", "display_address": ["108 Rio Villa Dr", "Punta Gorda, FL 33950"]}, "phone": "+19415750414", "display_phone": "(941) 575-0414", "distance": 12266.782072674085}, {"id": "MHatSiNKyJeXSnzHzQArmw", "alias": "hemingways-grille-punta-gorda", "name": "Hemingway's Grille", "image_url": "https://s3-media2.fl.yelpcdn.com/bphoto/n-wzZCt5chOd4aG6HwJ4UA/o.jpg", "is_closed": false, "url": "https://www.yelp.com/biz/hemingways-grille-punta-gorda?adjust_creative=IX0BPgmwhVVbGGNYDVN81A&utm_campaign=yelp_api_v3&utm_medium=api_v3_business_search&utm_source=IX0BPgmwhVVbGGNYDVN81A", "review_count": 534, "categories": [{"alias": "cocktailbars", "title": "Cocktail Bars"}, {"alias": "newamerican", "title": "American (New)"}, {"alias": "seafood", "title": "Seafood"}], "rating": 4.0, "coordinates": {"latitude": 26.93538, "longitude": -82.05077}, "transactions": ["restaurant_reservation", "delivery"], "price": "$$", "location": {"address1": "139 W Marion Ave", "address2": "", "address3": "", "city": "Punta Gorda", "zip_code": "33950", "country": "US", "state": "FL", "display_address": ["139 W Marion Ave", "Punta Gorda, FL 33950"]}, "phone": "+19416379477", "display_phone": "(941) 637-9477", "distance": 9252.347344639777}, {"id": "9HHuXjpcGPEp1My9sDxEtA", "alias": "captain-bill-s-hot-delicious-seafood-punta-gorda", "name": "Captain Bill\u2019s Hot Delicious Seafood", "image_url": "https://s3-media2.fl.yelpcdn.com/bphoto/a-lcpSIVpXviCGDXtcV3VQ/o.jpg", "is_closed": false, "url": "https://www.yelp.com/biz/captain-bill-s-hot-delicious-seafood-punta-gorda?adjust_creative=IX0BPgmwhVVbGGNYDVN81A&utm_campaign=yelp_api_v3&utm_medium=api_v3_business_search&utm_source=IX0BPgmwhVVbGGNYDVN81A", "review_count": 12, "categories": [{"alias": "seafood", "title": "Seafood"}], "rating": 4.5, "coordinates": {"latitude": 26.907222, "longitude": -82.040016}, "transactions": ["delivery", "pickup"], "location": {"address1": "106 Rio Villa Dr", "address2": "", "address3": null, "city": "Punta Gorda", "zip_code": "33950", "country": "US", "state": "FL", "display_address": ["106 Rio Villa Dr", "Punta Gorda, FL 33950"]}, "phone": "+19415051449", "display_phone": "(941) 505-1449", "distance": 12266.708093551739}, {"id": "IHcjPtJKOF0IJVGDhJ29Jg", "alias": "the-grill-at-1951-port-charlotte", "name": "The Grill At 1951", "image_url": "https://s3-media2.fl.yelpcdn.com/bphoto/wyJhHffsVtUG_V8Y66SaAA/o.jpg", "is_closed": false, "url": "https://www.yelp.com/biz/the-grill-at-1951-port-charlotte?adjust_creative=IX0BPgmwhVVbGGNYDVN81A&utm_campaign=yelp_api_v3&utm_medium=api_v3_business_search&utm_source=IX0BPgmwhVVbGGNYDVN81A", "review_count": 54, "categories": [{"alias": "seafood", "title": "Seafood"}, {"alias": "wine_bars", "title": "Wine Bars"}, {"alias": "steak", "title": "Steakhouses"}], "rating": 3.5, "coordinates": {"latitude": 27.00352, "longitude": -82.129507}, "transactions": ["delivery"], "location": {"address1": "1951 Tamiami Trl", "address2": null, "address3": "", "city": "Port Charlotte", "zip_code": "33948", "country": "US", "state": "FL", "display_address": ["1951 Tamiami Trl", "Port Charlotte, FL 33948"]}, "phone": "+19412550994", "display_phone": "(941) 255-0994", "distance": 1635.2572986373411}, {"id": "mia91T4aO963RtCts8lMrQ", "alias": "new-england-roadside-grill-pt-charlotte", "name": "New England Roadside Grill", "image_url": "https://s3-media1.fl.yelpcdn.com/bphoto/poaDZWQ29wElYOy0m5Kolw/o.jpg", "is_closed": false, "url": "https://www.yelp.com/biz/new-england-roadside-grill-pt-charlotte?adjust_creative=IX0BPgmwhVVbGGNYDVN81A&utm_campaign=yelp_api_v3&utm_medium=api_v3_business_search&utm_source=IX0BPgmwhVVbGGNYDVN81A", "review_count": 6, "categories": [{"alias": "seafood", "title": "Seafood"}, {"alias": "portuguese", "title": "Portuguese"}, {"alias": "comfortfood", "title": "Comfort Food"}], "rating": 5.0, "coordinates": {"latitude": 26.965611440788393, "longitude": -82.0779723}, "transactions": [], "location": {"address1": "22637 Bayshore Rd", "address2": null, "address3": "", "city": "Pt Charlotte", "zip_code": "33980", "country": "US", "state": "FL", "display_address": ["22637 Bayshore Rd", "Pt Charlotte, FL 33980"]}, "phone": "+19413916498", "display_phone": "(941) 391-6498", "distance": 5015.832314611069}, {"id": "8-IcHV06Ycf-lQG9RQWCeA", "alias": "sharks-fish-house-restaurant-north-port", "name": "Sharks Fish House Restaurant", "image_url": "https://s3-media3.fl.yelpcdn.com/bphoto/m35A_5e5mUowycjQGyxQ2A/o.jpg", "is_closed": false, "url": "https://www.yelp.com/biz/sharks-fish-house-restaurant-north-port?adjust_creative=IX0BPgmwhVVbGGNYDVN81A&utm_campaign=yelp_api_v3&utm_medium=api_v3_business_search&utm_source=IX0BPgmwhVVbGGNYDVN81A", "review_count": 110, "categories": [{"alias": "fishnchips", "title": "Fish & Chips"}, {"alias": "burgers", "title": "Burgers"}, {"alias": "beergardens", "title": "Beer Gardens"}], "rating": 4.0, "coordinates": {"latitude": 27.04277, "longitude": -82.23093}, "transactions": ["delivery"], "price": "$", "location": {"address1": "14595 Tamiami Trl", "address2": "", "address3": "", "city": "North Port", "zip_code": "34287", "country": "US", "state": "FL", "display_address": ["14595 Tamiami Trl", "North Port, FL 34287"]}, "phone": "+19414292150", "display_phone": "(941) 429-2150", "distance": 12447.644196861911}, {"id": "u_YklWDWMOWn14tyPefehw", "alias": "the-captains-table-punta-gorda", "name": "The Captain's Table", "image_url": "https://s3-media4.fl.yelpcdn.com/bphoto/NV_et926sfeRYSWzzVXJCw/o.jpg", "is_closed": false, "url": "https://www.yelp.com/biz/the-captains-table-punta-gorda?adjust_creative=IX0BPgmwhVVbGGNYDVN81A&utm_campaign=yelp_api_v3&utm_medium=api_v3_business_search&utm_source=IX0BPgmwhVVbGGNYDVN81A", "review_count": 211, "categories": [{"alias": "seafood", "title": "Seafood"}], "rating": 3.0, "coordinates": {"latitude": 26.92937581354833, "longitude": -82.06505800233238}, "transactions": ["delivery"], "price": "$$", "location": {"address1": "1200 W Retta Esplanade", "address2": "Ste 55", "address3": "", "city": "Punta Gorda", "zip_code": "33950", "country": "US", "state": "FL", "display_address": ["1200 W Retta Esplanade", "Ste 55", "Punta Gorda, FL 33950"]}, "phone": "+19416371177", "display_phone": "(941) 637-1177", "distance": 8796.833856563702}, {"id": "zRFMTnjtakb4O0yqNe14dw", "alias": "hurricane-charleys-raw-bar-and-grill-punta-gorda", "name": "Hurricane Charley's Raw Bar and Grill", "image_url": "https://s3-media3.fl.yelpcdn.com/bphoto/JRiYbyGw2RtKIyLPg43m1A/o.jpg", "is_closed": false, "url": "https://www.yelp.com/biz/hurricane-charleys-raw-bar-and-grill-punta-gorda?adjust_creative=IX0BPgmwhVVbGGNYDVN81A&utm_campaign=yelp_api_v3&utm_medium=api_v3_business_search&utm_source=IX0BPgmwhVVbGGNYDVN81A", "review_count": 447, "categories": [{"alias": "seafood", "title": "Seafood"}, {"alias": "burgers", "title": "Burgers"}, {"alias": "sushi", "title": "Sushi Bars"}], "rating": 3.0, "coordinates": {"latitude": 26.9360280692424, "longitude": -82.054472513974}, "transactions": ["delivery"], "price": "$$", "location": {"address1": "300 W Retta Esplanade", "address2": "", "address3": "", "city": "Punta Gorda", "zip_code": "33950", "country": "US", "state": "FL", "display_address": ["300 W Retta Esplanade", "Punta Gorda, FL 33950"]}, "phone": "+19416399695", "display_phone": "(941) 639-9695", "distance": 8933.704267567933}, {"id": "bpszitev_gYm0wJ1BnvTqg", "alias": "harbor-seafoods-meats-and-more-port-charlotte", "name": "Harbor Seafoods Meats And More", "image_url": "", "is_closed": false, "url": "https://www.yelp.com/biz/harbor-seafoods-meats-and-more-port-charlotte?adjust_creative=IX0BPgmwhVVbGGNYDVN81A&utm_campaign=yelp_api_v3&utm_medium=api_v3_business_search&utm_source=IX0BPgmwhVVbGGNYDVN81A", "review_count": 3, "categories": [{"alias": "seafoodmarkets", "title": "Seafood Markets"}, {"alias": "meats", "title": "Meat Shops"}], "rating": 3.5, "coordinates": {"latitude": 27.0120601654053, "longitude": -82.1499328613281}, "transactions": [], "price": "$$$", "location": {"address1": "1101 El Jobean Rd", "address2": "Ste A", "address3": null, "city": "Port Charlotte", "zip_code": "33948", "country": "US", "state": "FL", "display_address": ["1101 El Jobean Rd", "Ste A", "Port Charlotte, FL 33948"]}, "phone": "+19412553474", "display_phone": "(941) 255-3474", "distance": 3770.147260903414}, {"id": "Gl4t2cPFkZhsjFU_2OHaEA", "alias": "fresh-catch-fish-punta-gorda-2", "name": "Fresh Catch Fish", "image_url": "https://s3-media1.fl.yelpcdn.com/bphoto/F9_plfZA7_PnAJZ0HcWPFg/o.jpg", "is_closed": false, "url": "https://www.yelp.com/biz/fresh-catch-fish-punta-gorda-2?adjust_creative=IX0BPgmwhVVbGGNYDVN81A&utm_campaign=yelp_api_v3&utm_medium=api_v3_business_search&utm_source=IX0BPgmwhVVbGGNYDVN81A", "review_count": 4, "categories": [{"alias": "seafoodmarkets", "title": "Seafood Markets"}], "rating": 4.0, "coordinates": {"latitude": 26.8836033, "longitude": -82.0101327}, "transactions": [], "location": {"address1": "3769 Acline Rd", "address2": null, "address3": null, "city": "Punta Gorda", "zip_code": "33950", "country": "US", "state": "FL", "display_address": ["3769 Acline Rd", "Punta Gorda, FL 33950"]}, "phone": "+18335597676", "display_phone": "(833) 559-7676", "distance": 16192.205453256312}, {"id": "S7bAEdm6vh3yINqcqdTV5g", "alias": "village-fish-market-and-restaurant-punta-gorda", "name": "Village Fish Market & Restaurant", "image_url": "https://s3-media3.fl.yelpcdn.com/bphoto/Tvs-tYSgaUDw6vo-CsdkWQ/o.jpg", "is_closed": false, "url": "https://www.yelp.com/biz/village-fish-market-and-restaurant-punta-gorda?adjust_creative=IX0BPgmwhVVbGGNYDVN81A&utm_campaign=yelp_api_v3&utm_medium=api_v3_business_search&utm_source=IX0BPgmwhVVbGGNYDVN81A", "review_count": 247, "categories": [{"alias": "seafood", "title": "Seafood"}, {"alias": "tradamerican", "title": "American (Traditional)"}, {"alias": "salad", "title": "Salad"}], "rating": 3.0, "coordinates": {"latitude": 26.9293646, "longitude": -82.0652745}, "transactions": ["delivery"], "price": "$$", "location": {"address1": "1200 W Retta Esplanade", "address2": "Ste J36", "address3": null, "city": "Punta Gorda", "zip_code": "33950", "country": "US", "state": "FL", "display_address": ["1200 W Retta Esplanade", "Ste J36", "Punta Gorda, FL 33950"]}, "phone": "+19416397959", "display_phone": "(941) 639-7959", "distance": 8784.882152181424}, {"id": "-7NmjFw1fHJEcWNWg3HFQA", "alias": "peace-river-produce-and-seafood-punta-gorda", "name": "Peace River Produce & Seafood", "image_url": "https://s3-media3.fl.yelpcdn.com/bphoto/B188uPcN1f608o8Ip5RNxw/o.jpg", "is_closed": false, "url": "https://www.yelp.com/biz/peace-river-produce-and-seafood-punta-gorda?adjust_creative=IX0BPgmwhVVbGGNYDVN81A&utm_campaign=yelp_api_v3&utm_medium=api_v3_business_search&utm_source=IX0BPgmwhVVbGGNYDVN81A", "review_count": 15, "categories": [{"alias": "seafoodmarkets", "title": "Seafood Markets"}], "rating": 3.0, "coordinates": {"latitude": 26.9527206, "longitude": -81.9973831}, "transactions": ["delivery", "pickup"], "price": "$$", "location": {"address1": "5337 Duncan Rd", "address2": "", "address3": "", "city": "Punta Gorda", "zip_code": "33982", "country": "US", "state": "FL", "display_address": ["5337 Duncan Rd", "Punta Gorda, FL 33982"]}, "phone": "+19415058440", "display_phone": "(941) 505-8440", "distance": 12854.306912997501}, {"id": "TWo21ik1MX0BcuFqEcoPRw", "alias": "tarpon-point-grill-and-marina-venice-2", "name": "Tarpon Point Grill and Marina", "image_url": "https://s3-media1.fl.yelpcdn.com/bphoto/kQQpu4KxF9MvbQ9lyouSPQ/o.jpg", "is_closed": false, "url": "https://www.yelp.com/biz/tarpon-point-grill-and-marina-venice-2?adjust_creative=IX0BPgmwhVVbGGNYDVN81A&utm_campaign=yelp_api_v3&utm_medium=api_v3_business_search&utm_source=IX0BPgmwhVVbGGNYDVN81A", "review_count": 198, "categories": [{"alias": "seafood", "title": "Seafood"}, {"alias": "burgers", "title": "Burgers"}, {"alias": "tikibars", "title": "Tiki Bars"}], "rating": 3.0, "coordinates": {"latitude": 27.0443487, "longitude": -82.29333841443106}, "transactions": ["delivery", "pickup"], "price": "$$", "location": {"address1": "121 Playmore Dr", "address2": "", "address3": "", "city": "Venice", "zip_code": "34293", "country": "US", "state": "FL", "display_address": ["121 Playmore Dr", "Venice, FL 34293"]}, "phone": "+19414239616", "display_phone": "(941) 423-9616", "distance": 18239.452336833416}, {"id": "NyaRPgwJtO3t7Q4C4vtvMg", "alias": "leroys-southern-kitchen-and-bar-punta-gorda-2", "name": "Leroy's Southern Kitchen & Bar", "image_url": "https://s3-media3.fl.yelpcdn.com/bphoto/-8wRsQZ5a2xvfqyU0Fs_NQ/o.jpg", "is_closed": false, "url": "https://www.yelp.com/biz/leroys-southern-kitchen-and-bar-punta-gorda-2?adjust_creative=IX0BPgmwhVVbGGNYDVN81A&utm_campaign=yelp_api_v3&utm_medium=api_v3_business_search&utm_source=IX0BPgmwhVVbGGNYDVN81A", "review_count": 381, "categories": [{"alias": "southern", "title": "Southern"}, {"alias": "newamerican", "title": "American (New)"}, {"alias": "soulfood", "title": "Soul Food"}], "rating": 4.0, "coordinates": {"latitude": 26.9347571345195, "longitude": -82.0514776208279}, "transactions": ["delivery", "pickup"], "price": "$$", "location": {"address1": "201 W Marion", "address2": "", "address3": "", "city": "Punta Gorda", "zip_code": "33950", "country": "US", "state": "FL", "display_address": ["201 W Marion", "Punta Gorda, FL 33950"]}, "phone": "+19415052489", "display_phone": "(941) 505-2489", "distance": 9244.972351099575}, {"id": "_4ozcc0v6IOXUIwRYxlpHg", "alias": "carmelos-punta-gorda", "name": "Carmelo's", "image_url": "https://s3-media4.fl.yelpcdn.com/bphoto/snL3_rqOGuRXA9DwvCXY6Q/o.jpg", "is_closed": false, "url": "https://www.yelp.com/biz/carmelos-punta-gorda?adjust_creative=IX0BPgmwhVVbGGNYDVN81A&utm_campaign=yelp_api_v3&utm_medium=api_v3_business_search&utm_source=IX0BPgmwhVVbGGNYDVN81A", "review_count": 370, "categories": [{"alias": "italian", "title": "Italian"}], "rating": 4.5, "coordinates": {"latitude": 26.9346083, "longitude": -82.0537596}, "transactions": ["delivery"], "price": "$$", "location": {"address1": "321 W Retta Esplanade", "address2": "", "address3": "", "city": "Punta Gorda", "zip_code": "33950", "country": "US", "state": "FL", "display_address": ["321 W Retta Esplanade", "Punta Gorda, FL 33950"]}, "phone": "+19416214091", "display_phone": "(941) 621-4091", "distance": 9095.08115448543}, {"id": "ndbAyBwrvo4J5E9c5kEUoQ", "alias": "fin-sushi-and-grill-port-charlotte", "name": "Fin Sushi & Grill", "image_url": "https://s3-media3.fl.yelpcdn.com/bphoto/HxVmlrINJ7U2YJzlA0hiAQ/o.jpg", "is_closed": false, "url": "https://www.yelp.com/biz/fin-sushi-and-grill-port-charlotte?adjust_creative=IX0BPgmwhVVbGGNYDVN81A&utm_campaign=yelp_api_v3&utm_medium=api_v3_business_search&utm_source=IX0BPgmwhVVbGGNYDVN81A", "review_count": 240, "categories": [{"alias": "sushi", "title": "Sushi Bars"}], "rating": 4.5, "coordinates": {"latitude": 27.01586, "longitude": -82.05494}, "transactions": ["delivery"], "price": "$$", "location": {"address1": "24123 Peachland Blvd", "address2": "Unit C3", "address3": null, "city": "Port Charlotte", "zip_code": "33954", "country": "US", "state": "FL", "display_address": ["24123 Peachland Blvd", "Unit C3", "Port Charlotte, FL 33954"]}, "phone": "+19416666686", "display_phone": "(941) 666-6686", "distance": 6831.969222119881}, {"id": "Uh6GzN_clPgIDb-YfrnIaQ", "alias": "river-city-grill-punta-gorda", "name": "River City Grill", "image_url": "https://s3-media4.fl.yelpcdn.com/bphoto/psH9BPlxnN9Qf9z68aHVCw/o.jpg", "is_closed": false, "url": "https://www.yelp.com/biz/river-city-grill-punta-gorda?adjust_creative=IX0BPgmwhVVbGGNYDVN81A&utm_campaign=yelp_api_v3&utm_medium=api_v3_business_search&utm_source=IX0BPgmwhVVbGGNYDVN81A", "review_count": 213, "categories": [{"alias": "tradamerican", "title": "American (Traditional)"}], "rating": 4.0, "coordinates": {"latitude": 26.93553, "longitude": -82.0505699}, "transactions": ["delivery"], "price": "$$", "location": {"address1": "131 W Marion Ave", "address2": "", "address3": "", "city": "Punta Gorda", "zip_code": "33950", "country": "US", "state": "FL", "display_address": ["131 W Marion Ave", "Punta Gorda, FL 33950"]}, "phone": "+19416399080", "display_phone": "(941) 639-9080", "distance": 9257.97900750891}, {"id": "Xp_M957ImE8qQDyPr3pdXg", "alias": "88-keys-punta-gorda", "name": "88 Keys", "image_url": "https://s3-media2.fl.yelpcdn.com/bphoto/rHvItf3DmtgotzgQUTegbA/o.jpg", "is_closed": false, "url": "https://www.yelp.com/biz/88-keys-punta-gorda?adjust_creative=IX0BPgmwhVVbGGNYDVN81A&utm_campaign=yelp_api_v3&utm_medium=api_v3_business_search&utm_source=IX0BPgmwhVVbGGNYDVN81A", "review_count": 54, "categories": [{"alias": "newamerican", "title": "American (New)"}, {"alias": "pianobars", "title": "Piano Bars"}], "rating": 3.5, "coordinates": {"latitude": 26.9372, "longitude": -82.05072}, "transactions": ["delivery", "restaurant_reservation"], "location": {"address1": "101 E Retta Esplanade", "address2": "", "address3": null, "city": "Punta Gorda", "zip_code": "33950", "country": "US", "state": "FL", "display_address": ["101 E Retta Esplanade", "Punta Gorda, FL 33950"]}, "phone": "+19416397700", "display_phone": "(941) 639-7700", "distance": 9124.753180818874}, {"id": "Xraeqada-WnakFLNVNzsNA", "alias": "rossini-trattoria-gastronomica-port-charlotte", "name": "Rossini Trattoria Gastronomica", "image_url": "https://s3-media2.fl.yelpcdn.com/bphoto/uzO0xQBYut6Pda4bTXBK_g/o.jpg", "is_closed": false, "url": "https://www.yelp.com/biz/rossini-trattoria-gastronomica-port-charlotte?adjust_creative=IX0BPgmwhVVbGGNYDVN81A&utm_campaign=yelp_api_v3&utm_medium=api_v3_business_search&utm_source=IX0BPgmwhVVbGGNYDVN81A", "review_count": 122, "categories": [{"alias": "italian", "title": "Italian"}, {"alias": "soup", "title": "Soup"}, {"alias": "pizza", "title": "Pizza"}], "rating": 4.5, "coordinates": {"latitude": 27.00698, "longitude": -82.14731}, "transactions": ["delivery", "pickup"], "price": "$$$", "location": {"address1": "18101 Murdock Cir", "address2": "", "address3": null, "city": "Port Charlotte", "zip_code": "33948", "country": "US", "state": "FL", "display_address": ["18101 Murdock Cir", "Port Charlotte, FL 33948"]}, "phone": "+19417666111", "display_phone": "(941) 766-6111", "distance": 3263.558631213747}, {"id": "5R7s3SdfycYXLwg0ZWK4bQ", "alias": "f-m-dons-punta-gorda-2", "name": "F M DON'S", "image_url": "https://s3-media4.fl.yelpcdn.com/bphoto/J73dQWhNBJAZkPygLdvVRg/o.jpg", "is_closed": false, "url": "https://www.yelp.com/biz/f-m-dons-punta-gorda-2?adjust_creative=IX0BPgmwhVVbGGNYDVN81A&utm_campaign=yelp_api_v3&utm_medium=api_v3_business_search&utm_source=IX0BPgmwhVVbGGNYDVN81A", "review_count": 351, "categories": [{"alias": "bars", "title": "Bars"}, {"alias": "newamerican", "title": "American (New)"}, {"alias": "seafood", "title": "Seafood"}], "rating": 4.0, "coordinates": {"latitude": 26.93472, "longitude": -82.05118}, "transactions": ["delivery"], "price": "$$", "location": {"address1": "201 W Marion Ave", "address2": null, "address3": null, "city": "Punta Gorda", "zip_code": "33950", "country": "US", "state": "FL", "display_address": ["201 W Marion Ave", "Punta Gorda, FL 33950"]}, "phone": "+19416378800", "display_phone": "(941) 637-8800", "distance": 9275.949176160691}, {"id": "UKEAwUr3v_eQMQO5xpD5Eg", "alias": "wallys-southern-style-bbq-port-charlotte", "name": "Wally's Southern Style BBQ", "image_url": "https://s3-media2.fl.yelpcdn.com/bphoto/DurxZPxjcpRmN1FNr1Nsjg/o.jpg", "is_closed": false, "url": "https://www.yelp.com/biz/wallys-southern-style-bbq-port-charlotte?adjust_creative=IX0BPgmwhVVbGGNYDVN81A&utm_campaign=yelp_api_v3&utm_medium=api_v3_business_search&utm_source=IX0BPgmwhVVbGGNYDVN81A", "review_count": 218, "categories": [{"alias": "bbq", "title": "Barbeque"}], "rating": 4.0, "coordinates": {"latitude": 26.97684, "longitude": -82.093}, "transactions": ["delivery", "pickup"], "price": "$$", "location": {"address1": "3591 Tamiami Trl", "address2": "", "address3": "", "city": "Port Charlotte", "zip_code": "33952", "country": "US", "state": "FL", "display_address": ["3591 Tamiami Trl", "Port Charlotte, FL 33952"]}, "phone": "+19416130005", "display_phone": "(941) 613-0005", "distance": 3081.0348887098276}, {"id": "fTAFD9b3OcCwFXOv1Ke-nA", "alias": "prime-serious-steak-port-charlotte-4", "name": "Prime Serious Steak", "image_url": "https://s3-media4.fl.yelpcdn.com/bphoto/rFChSgqibitPnj3_vP-wdg/o.jpg", "is_closed": false, "url": "https://www.yelp.com/biz/prime-serious-steak-port-charlotte-4?adjust_creative=IX0BPgmwhVVbGGNYDVN81A&utm_campaign=yelp_api_v3&utm_medium=api_v3_business_search&utm_source=IX0BPgmwhVVbGGNYDVN81A", "review_count": 418, "categories": [{"alias": "steak", "title": "Steakhouses"}], "rating": 4.0, "coordinates": {"latitude": 27.014835, "longitude": -82.132628}, "transactions": ["delivery"], "price": "$$$", "location": {"address1": "19655 Cochran Blvd", "address2": null, "address3": "", "city": "Port Charlotte", "zip_code": "33948", "country": "US", "state": "FL", "display_address": ["19655 Cochran Blvd", "Port Charlotte, FL 33948"]}, "phone": "+19416278325", "display_phone": "(941) 627-8325", "distance": 2850.0377178130907}, {"id": "WJAcWsI7W4C5PmJaWANpwQ", "alias": "visani-port-charlotte", "name": "Visani", "image_url": "https://s3-media3.fl.yelpcdn.com/bphoto/Z_oNhqKC02x_NsQNIqTiaA/o.jpg", "is_closed": false, "url": "https://www.yelp.com/biz/visani-port-charlotte?adjust_creative=IX0BPgmwhVVbGGNYDVN81A&utm_campaign=yelp_api_v3&utm_medium=api_v3_business_search&utm_source=IX0BPgmwhVVbGGNYDVN81A", "review_count": 127, "categories": [{"alias": "comedyclubs", "title": "Comedy Clubs"}, {"alias": "italian", "title": "Italian"}, {"alias": "steak", "title": "Steakhouses"}], "rating": 4.0, "coordinates": {"latitude": 26.992308, "longitude": -82.059342}, "transactions": ["delivery", "pickup"], "price": "$$", "location": {"address1": "2400 Kings Hwy", "address2": "", "address3": "", "city": "Port Charlotte", "zip_code": "33980", "country": "US", "state": "FL", "display_address": ["2400 Kings Hwy", "Port Charlotte, FL 33980"]}, "phone": "+19416299191", "display_phone": "(941) 629-9191", "distance": 5879.625020470605}, {"id": "Yn91mCOHvycaNM41pZ1upg", "alias": "harpoon-harrys-lounge-and-raw-bar-punta-gorda", "name": "Harpoon Harry's Lounge & Raw Bar", "image_url": "https://s3-media3.fl.yelpcdn.com/bphoto/HphrnzkghFgEsGW0hz6vuQ/o.jpg", "is_closed": false, "url": "https://www.yelp.com/biz/harpoon-harrys-lounge-and-raw-bar-punta-gorda?adjust_creative=IX0BPgmwhVVbGGNYDVN81A&utm_campaign=yelp_api_v3&utm_medium=api_v3_business_search&utm_source=IX0BPgmwhVVbGGNYDVN81A", "review_count": 355, "categories": [{"alias": "seafood", "title": "Seafood"}], "rating": 3.0, "coordinates": {"latitude": 26.929354477937164, "longitude": -82.0650913529227}, "transactions": ["delivery"], "price": "$$", "location": {"address1": "1200 W Retta Esplanade", "address2": "Ste 55", "address3": "", "city": "Punta Gorda", "zip_code": "33950", "country": "US", "state": "FL", "display_address": ["1200 W Retta Esplanade", "Ste 55", "Punta Gorda, FL 33950"]}, "phone": "+19416371177", "display_phone": "(941) 637-1177", "distance": 8796.728586006175}, {"id": "DbZryzdhVItGN3gBMwOo9Q", "alias": "ice-house-pub-punta-gorda", "name": "Ice House Pub", "image_url": "https://s3-media3.fl.yelpcdn.com/bphoto/MixzVKtJCpF4I9kXhOhuwQ/o.jpg", "is_closed": false, "url": "https://www.yelp.com/biz/ice-house-pub-punta-gorda?adjust_creative=IX0BPgmwhVVbGGNYDVN81A&utm_campaign=yelp_api_v3&utm_medium=api_v3_business_search&utm_source=IX0BPgmwhVVbGGNYDVN81A", "review_count": 232, "categories": [{"alias": "tradamerican", "title": "American (Traditional)"}, {"alias": "pubs", "title": "Pubs"}, {"alias": "sportsbars", "title": "Sports Bars"}], "rating": 4.0, "coordinates": {"latitude": 26.934076, "longitude": -82.047821}, "transactions": ["delivery"], "price": "$$", "location": {"address1": "408 Tamiami Trl N", "address2": "", "address3": "", "city": "Punta Gorda", "zip_code": "33950", "country": "US", "state": "FL", "display_address": ["408 Tamiami Trl N", "Punta Gorda, FL 33950"]}, "phone": "+19415750866", "display_phone": "(941) 575-0866", "distance": 9560.627507215959}, {"id": "9trQ-CPTNm4BJgLUkZJojQ", "alias": "john-skis-house-of-breakfast-and-lunch-punta-gorda", "name": "John Ski's House of Breakfast & Lunch", "image_url": "https://s3-media2.fl.yelpcdn.com/bphoto/g148aeCSxL3sQUNPoNusvA/o.jpg", "is_closed": false, "url": "https://www.yelp.com/biz/john-skis-house-of-breakfast-and-lunch-punta-gorda?adjust_creative=IX0BPgmwhVVbGGNYDVN81A&utm_campaign=yelp_api_v3&utm_medium=api_v3_business_search&utm_source=IX0BPgmwhVVbGGNYDVN81A", "review_count": 364, "categories": [{"alias": "breakfast_brunch", "title": "Breakfast & Brunch"}, {"alias": "tradamerican", "title": "American (Traditional)"}, {"alias": "southern", "title": "Southern"}], "rating": 4.5, "coordinates": {"latitude": 26.93305, "longitude": -82.0466}, "transactions": ["delivery"], "price": "$$", "location": {"address1": "502 King St", "address2": "", "address3": "", "city": "Punta Gorda", "zip_code": "33950", "country": "US", "state": "FL", "display_address": ["502 King St", "Punta Gorda, FL 33950"]}, "phone": "+19413477645", "display_phone": "(941) 347-7645", "distance": 9718.858784695907}, {"id": "_iqzV5NyFZaPqZEPAhlYyw", "alias": "ekiben-port-charlotte", "name": "Ekiben", "image_url": "https://s3-media4.fl.yelpcdn.com/bphoto/rON936MDuEmtvrB9a4ffag/o.jpg", "is_closed": false, "url": "https://www.yelp.com/biz/ekiben-port-charlotte?adjust_creative=IX0BPgmwhVVbGGNYDVN81A&utm_campaign=yelp_api_v3&utm_medium=api_v3_business_search&utm_source=IX0BPgmwhVVbGGNYDVN81A", "review_count": 8, "categories": [{"alias": "japanese", "title": "Japanese"}], "rating": 4.5, "coordinates": {"latitude": 27.008847, "longitude": -82.13474}, "transactions": ["delivery", "pickup"], "location": {"address1": "19400 Cochran Blvd", "address2": "Unit 2", "address3": null, "city": "Port Charlotte", "zip_code": "33948", "country": "US", "state": "FL", "display_address": ["19400 Cochran Blvd", "Unit 2", "Port Charlotte, FL 33948"]}, "phone": "+19417668877", "display_phone": "(941) 766-8877", "distance": 2452.3230995386552}, {"id": "QVEHDd6aTFpKqwYOIZpHIw", "alias": "isabellas-bistro-englewood", "name": "Isabella's Bistro", "image_url": "https://s3-media2.fl.yelpcdn.com/bphoto/ZxA8yybF3cF4mYO5Rb4LAg/o.jpg", "is_closed": false, "url": "https://www.yelp.com/biz/isabellas-bistro-englewood?adjust_creative=IX0BPgmwhVVbGGNYDVN81A&utm_campaign=yelp_api_v3&utm_medium=api_v3_business_search&utm_source=IX0BPgmwhVVbGGNYDVN81A", "review_count": 36, "categories": [{"alias": "italian", "title": "Italian"}, {"alias": "seafood", "title": "Seafood"}], "rating": 4.5, "coordinates": {"latitude": 26.876648915981693, "longitude": -82.30885087001991}, "transactions": ["delivery"], "location": {"address1": "6800 Placida Rd", "address2": "Unit 1A", "address3": null, "city": "Englewood", "zip_code": "34224", "country": "US", "state": "FL", "display_address": ["6800 Placida Rd", "Unit 1A", "Englewood, FL 34224"]}, "phone": "+19416988880", "display_phone": "(941) 698-8880", "distance": 22827.678872126104}, {"id": "ooYFkwcQYjIIF8baCcQxKg", "alias": "ginger-dim-sum-port-charlotte", "name": "Ginger Dim Sum", "image_url": "https://s3-media2.fl.yelpcdn.com/bphoto/85Bq0X_ywbcZCCtSm-Pwow/o.jpg", "is_closed": false, "url": "https://www.yelp.com/biz/ginger-dim-sum-port-charlotte?adjust_creative=IX0BPgmwhVVbGGNYDVN81A&utm_campaign=yelp_api_v3&utm_medium=api_v3_business_search&utm_source=IX0BPgmwhVVbGGNYDVN81A", "review_count": 30, "categories": [{"alias": "dimsum", "title": "Dim Sum"}], "rating": 4.0, "coordinates": {"latitude": 27.00584, "longitude": -82.05399}, "transactions": ["delivery", "pickup"], "price": "$$", "location": {"address1": "1912 Kings Hwy", "address2": "Unit 100", "address3": "", "city": "Port Charlotte", "zip_code": "33980", "country": "US", "state": "FL", "display_address": ["1912 Kings Hwy", "Unit 100", "Port Charlotte, FL 33980"]}, "phone": "+19413915768", "display_phone": "(941) 391-5768", "distance": 6572.929646913589}, {"id": "VTEG3fv85xZkRc3FhocLjw", "alias": "village-brewhouse-punta-gorda", "name": "Village Brewhouse", "image_url": "https://s3-media2.fl.yelpcdn.com/bphoto/-KEaGRZKjw6dESEAUF8AIQ/o.jpg", "is_closed": false, "url": "https://www.yelp.com/biz/village-brewhouse-punta-gorda?adjust_creative=IX0BPgmwhVVbGGNYDVN81A&utm_campaign=yelp_api_v3&utm_medium=api_v3_business_search&utm_source=IX0BPgmwhVVbGGNYDVN81A", "review_count": 170, "categories": [{"alias": "burgers", "title": "Burgers"}, {"alias": "sportsbars", "title": "Sports Bars"}, {"alias": "newamerican", "title": "American (New)"}], "rating": 3.5, "coordinates": {"latitude": 26.928468775143568, "longitude": -82.06472706647399}, "transactions": ["delivery", "pickup"], "price": "$$", "location": {"address1": "1200 W Retta Esplanade", "address2": "Ste G-37", "address3": "", "city": "Punta Gorda", "zip_code": "33950", "country": "US", "state": "FL", "display_address": ["1200 W Retta Esplanade", "Ste G-37", "Punta Gorda, FL 33950"]}, "phone": "+19416218329", "display_phone": "(941) 621-8329", "distance": 8897.100393906005}, {"id": "ufmkz5UgvKmeq5LcDo_bFg", "alias": "peace-river-beer-company-punta-gorda", "name": "Peace River Beer Company", "image_url": "https://s3-media1.fl.yelpcdn.com/bphoto/fHRBPjdPHWPXRKnlztwK4Q/o.jpg", "is_closed": false, "url": "https://www.yelp.com/biz/peace-river-beer-company-punta-gorda?adjust_creative=IX0BPgmwhVVbGGNYDVN81A&utm_campaign=yelp_api_v3&utm_medium=api_v3_business_search&utm_source=IX0BPgmwhVVbGGNYDVN81A", "review_count": 62, "categories": [{"alias": "sushi", "title": "Sushi Bars"}, {"alias": "thai", "title": "Thai"}, {"alias": "beerbar", "title": "Beer Bar"}], "rating": 4.0, "coordinates": {"latitude": 26.922624670545, "longitude": -82.0463574613196}, "transactions": [], "price": "$$", "location": {"address1": "1732 Steadley Ave", "address2": "", "address3": null, "city": "Punta Gorda", "zip_code": "33950", "country": "US", "state": "FL", "display_address": ["1732 Steadley Ave", "Punta Gorda, FL 33950"]}, "phone": "+19416558352", "display_phone": "(941) 655-8352", "distance": 10564.621005906298}, {"id": "ygSeEt3TUNknR01h6z06RQ", "alias": "sting-rays-bar-and-grill-punta-gorda", "name": "Sting Ray's Bar & Grill", "image_url": "https://s3-media2.fl.yelpcdn.com/bphoto/OeHm8BPs0X1KTNHsFrNZJA/o.jpg", "is_closed": false, "url": "https://www.yelp.com/biz/sting-rays-bar-and-grill-punta-gorda?adjust_creative=IX0BPgmwhVVbGGNYDVN81A&utm_campaign=yelp_api_v3&utm_medium=api_v3_business_search&utm_source=IX0BPgmwhVVbGGNYDVN81A", "review_count": 9, "categories": [{"alias": "bars", "title": "Bars"}, {"alias": "seafood", "title": "Seafood"}, {"alias": "breakfast_brunch", "title": "Breakfast & Brunch"}], "rating": 4.0, "coordinates": {"latitude": 26.8831552765792, "longitude": -82.0176919922233}, "transactions": [], "location": {"address1": "10175 Tamiami Trl", "address2": "", "address3": null, "city": "Punta Gorda", "zip_code": "33950", "country": "US", "state": "FL", "display_address": ["10175 Tamiami Trl", "Punta Gorda, FL 33950"]}, "phone": "+19415751279", "display_phone": "(941) 575-1279", "distance": 15742.636080093003}, {"id": "XNAq4dgYZMMD2Oy5WH_Ezg", "alias": "cape-haze-tavern-rotonda-west", "name": "Cape Haze Tavern", "image_url": "https://s3-media4.fl.yelpcdn.com/bphoto/xDdgulWlGk-HJTo-33KlYA/o.jpg", "is_closed": false, "url": "https://www.yelp.com/biz/cape-haze-tavern-rotonda-west?adjust_creative=IX0BPgmwhVVbGGNYDVN81A&utm_campaign=yelp_api_v3&utm_medium=api_v3_business_search&utm_source=IX0BPgmwhVVbGGNYDVN81A", "review_count": 30, "categories": [{"alias": "newamerican", "title": "American (New)"}, {"alias": "cocktailbars", "title": "Cocktail Bars"}, {"alias": "tradamerican", "title": "American (Traditional)"}], "rating": 3.5, "coordinates": {"latitude": 26.870954, "longitude": -82.290999}, "transactions": ["delivery", "pickup"], "location": {"address1": "3745 Cape Haze Dr", "address2": "", "address3": null, "city": "Rotonda West", "zip_code": "33947", "country": "US", "state": "FL", "display_address": ["3745 Cape Haze Dr", "Rotonda West, FL 33947"]}, "phone": "+19418308946", "display_phone": "(941) 830-8946", "distance": 21767.264842430828}, {"id": "FrlrTZ_UGpnT8DpknAqzUQ", "alias": "chubbyz-sports-grill-and-tavern-port-charlotte", "name": "Chubby'z Sports Grill & Tavern", "image_url": "https://s3-media3.fl.yelpcdn.com/bphoto/F1HhTND7xZBwDequ8b_9rQ/o.jpg", "is_closed": false, "url": "https://www.yelp.com/biz/chubbyz-sports-grill-and-tavern-port-charlotte?adjust_creative=IX0BPgmwhVVbGGNYDVN81A&utm_campaign=yelp_api_v3&utm_medium=api_v3_business_search&utm_source=IX0BPgmwhVVbGGNYDVN81A", "review_count": 76, "categories": [{"alias": "tradamerican", "title": "American (Traditional)"}, {"alias": "chicken_wings", "title": "Chicken Wings"}, {"alias": "sportsbars", "title": "Sports Bars"}], "rating": 4.0, "coordinates": {"latitude": 26.96981, "longitude": -82.08324}, "transactions": ["delivery"], "price": "$$", "location": {"address1": "4109 Tamiami Trl", "address2": "", "address3": "", "city": "Port Charlotte", "zip_code": "33952", "country": "US", "state": "FL", "display_address": ["4109 Tamiami Trl", "Port Charlotte, FL 33952"]}, "phone": "+19416130002", "display_phone": "(941) 613-0002", "distance": 4326.179250834146}, {"id": "EpUpb4FaLGirFHwSW6I5Rw", "alias": "the-chef-thai-sushi-bar-and-grill-port-charlotte", "name": "The Chef Thai Sushi Bar & Grill", "image_url": "https://s3-media3.fl.yelpcdn.com/bphoto/77CsfnkzZzGd_RONen7ZgA/o.jpg", "is_closed": false, "url": "https://www.yelp.com/biz/the-chef-thai-sushi-bar-and-grill-port-charlotte?adjust_creative=IX0BPgmwhVVbGGNYDVN81A&utm_campaign=yelp_api_v3&utm_medium=api_v3_business_search&utm_source=IX0BPgmwhVVbGGNYDVN81A", "review_count": 72, "categories": [{"alias": "sushi", "title": "Sushi Bars"}, {"alias": "thai", "title": "Thai"}, {"alias": "salad", "title": "Salad"}], "rating": 4.5, "coordinates": {"latitude": 27.001755, "longitude": -82.123636}, "transactions": ["delivery", "pickup"], "location": {"address1": "2150 Tamiami Trl", "address2": "", "address3": null, "city": "Port Charlotte", "zip_code": "33948", "country": "US", "state": "FL", "display_address": ["2150 Tamiami Trl", "Port Charlotte, FL 33948"]}, "phone": "+19418836800", "display_phone": "(941) 883-6800", "distance": 1148.4830778935864}, {"id": "Vk3N9fxwNJB_m6X4O0ouAA", "alias": "leverocks-restaurants-cape-haze", "name": "Leverocks Restaurants", "image_url": "https://s3-media3.fl.yelpcdn.com/bphoto/-Btg0BZ4ra8aIuBCGTuCbQ/o.jpg", "is_closed": false, "url": "https://www.yelp.com/biz/leverocks-restaurants-cape-haze?adjust_creative=IX0BPgmwhVVbGGNYDVN81A&utm_campaign=yelp_api_v3&utm_medium=api_v3_business_search&utm_source=IX0BPgmwhVVbGGNYDVN81A", "review_count": 133, "categories": [{"alias": "seafood", "title": "Seafood"}, {"alias": "desserts", "title": "Desserts"}, {"alias": "coffee", "title": "Coffee & Tea"}], "rating": 3.0, "coordinates": {"latitude": 26.87096, "longitude": -82.31021}, "transactions": [], "price": "$$", "location": {"address1": "7092 Placida Rd", "address2": "", "address3": "", "city": "Cape Haze", "zip_code": "33946", "country": "US", "state": "FL", "display_address": ["7092 Placida Rd", "Cape Haze, FL 33946"]}, "phone": "+19416986900", "display_phone": "(941) 698-6900", "distance": 23308.264527212792}, {"id": "vzLW2dyPLhG1ZJwLE6FALQ", "alias": "big-bamboo-asian-fusion-port-charlotte-2", "name": "Big BamBoo Asian Fusion", "image_url": "https://s3-media2.fl.yelpcdn.com/bphoto/EibrMkSdPoFhtsSFhDKacg/o.jpg", "is_closed": false, "url": "https://www.yelp.com/biz/big-bamboo-asian-fusion-port-charlotte-2?adjust_creative=IX0BPgmwhVVbGGNYDVN81A&utm_campaign=yelp_api_v3&utm_medium=api_v3_business_search&utm_source=IX0BPgmwhVVbGGNYDVN81A", "review_count": 129, "categories": [{"alias": "chinese", "title": "Chinese"}, {"alias": "asianfusion", "title": "Asian Fusion"}, {"alias": "sushi", "title": "Sushi Bars"}], "rating": 4.0, "coordinates": {"latitude": 26.971588913815438, "longitude": -82.20890494642197}, "transactions": ["delivery", "pickup"], "location": {"address1": "4104 El Jobean Rd", "address2": null, "address3": "", "city": "Port Charlotte", "zip_code": "33953", "country": "US", "state": "FL", "display_address": ["4104 El Jobean Rd", "Port Charlotte, FL 33953"]}, "phone": "+19417638999", "display_phone": "(941) 763-8999", "distance": 9235.312900125811}, {"id": "nubK-tVxBDnMCdVZHEldrA", "alias": "little-brooklyn-food-house-north-port", "name": "Little Brooklyn Food House", "image_url": "https://s3-media2.fl.yelpcdn.com/bphoto/HTTd1ha4nRulDjQMJaPdLw/o.jpg", "is_closed": false, "url": "https://www.yelp.com/biz/little-brooklyn-food-house-north-port?adjust_creative=IX0BPgmwhVVbGGNYDVN81A&utm_campaign=yelp_api_v3&utm_medium=api_v3_business_search&utm_source=IX0BPgmwhVVbGGNYDVN81A", "review_count": 1, "categories": [{"alias": "russian", "title": "Russian"}, {"alias": "seafood", "title": "Seafood"}], "rating": 5.0, "coordinates": {"latitude": 27.046113831241392, "longitude": -82.24968684567285}, "transactions": ["delivery"], "location": {"address1": "13635 Tamiami Trl", "address2": null, "address3": "", "city": "North Port", "zip_code": "34287", "country": "US", "state": "FL", "display_address": ["13635 Tamiami Trl", "North Port, FL 34287"]}, "phone": "+12679714956", "display_phone": "(267) 971-4956", "distance": 14334.509720729664}, {"id": "FY_VUNWm6VPz_S0GfD9zOA", "alias": "nicolas-italian-kitchen-englewood", "name": "Nicola's Italian Kitchen", "image_url": "https://s3-media4.fl.yelpcdn.com/bphoto/FOOBZWV7J3qPac2tIplKdA/o.jpg", "is_closed": false, "url": "https://www.yelp.com/biz/nicolas-italian-kitchen-englewood?adjust_creative=IX0BPgmwhVVbGGNYDVN81A&utm_campaign=yelp_api_v3&utm_medium=api_v3_business_search&utm_source=IX0BPgmwhVVbGGNYDVN81A", "review_count": 182, "categories": [{"alias": "italian", "title": "Italian"}, {"alias": "pizza", "title": "Pizza"}], "rating": 4.5, "coordinates": {"latitude": 26.93213, "longitude": -82.26477}, "transactions": ["delivery"], "price": "$$", "location": {"address1": "4343 S Access Rd", "address2": "", "address3": "", "city": "Englewood", "zip_code": "34224", "country": "US", "state": "FL", "display_address": ["4343 S Access Rd", "Englewood, FL 34224"]}, "phone": "+19414746195", "display_phone": "(941) 474-6195", "distance": 15960.74802499654}, {"id": "vqtpRG8HbQOqoEPb1tGymA", "alias": "donatos-italian-restaurant-port-charlotte", "name": "Donato's Italian Restaurant", "image_url": "https://s3-media2.fl.yelpcdn.com/bphoto/DhUM3jM5LchKsOCebmCOeg/o.jpg", "is_closed": false, "url": "https://www.yelp.com/biz/donatos-italian-restaurant-port-charlotte?adjust_creative=IX0BPgmwhVVbGGNYDVN81A&utm_campaign=yelp_api_v3&utm_medium=api_v3_business_search&utm_source=IX0BPgmwhVVbGGNYDVN81A", "review_count": 252, "categories": [{"alias": "italian", "title": "Italian"}], "rating": 4.0, "coordinates": {"latitude": 27.0066639, "longitude": -82.130536}, "transactions": ["delivery"], "price": "$$", "location": {"address1": "1900 Tamiami Trl", "address2": "Ste 17", "address3": "", "city": "Port Charlotte", "zip_code": "33948", "country": "US", "state": "FL", "display_address": ["1900 Tamiami Trl", "Ste 17", "Port Charlotte, FL 33948"]}, "phone": "+19417641600", "display_phone": "(941) 764-1600", "distance": 1972.0051029544925}, {"id": "EE6_rrxYAw_V2GtHYvH5yw", "alias": "little-good-times-diner-punta-gorda", "name": "Little Good Times Diner", "image_url": "https://s3-media2.fl.yelpcdn.com/bphoto/k8JzHvHTsVb9lq_jGCGM1w/o.jpg", "is_closed": false, "url": "https://www.yelp.com/biz/little-good-times-diner-punta-gorda?adjust_creative=IX0BPgmwhVVbGGNYDVN81A&utm_campaign=yelp_api_v3&utm_medium=api_v3_business_search&utm_source=IX0BPgmwhVVbGGNYDVN81A", "review_count": 50, "categories": [{"alias": "diners", "title": "Diners"}, {"alias": "desserts", "title": "Desserts"}, {"alias": "breakfast_brunch", "title": "Breakfast & Brunch"}], "rating": 4.0, "coordinates": {"latitude": 27.005032, "longitude": -82.053115}, "transactions": ["delivery"], "price": "$", "location": {"address1": "1932 Kings Hwy", "address2": "", "address3": "", "city": "Punta Gorda", "zip_code": "33980", "country": "US", "state": "FL", "display_address": ["1932 Kings Hwy", "Punta Gorda, FL 33980"]}, "phone": "+19416251115", "display_phone": "(941) 625-1115", "distance": 6645.951371542877}, {"id": "95AMwOK1mJFMos5UsSoVsQ", "alias": "plaza-mexico-restaurant-bar-and-grill-port-charlotte", "name": "Plaza Mexico Restaurant Bar & Grill", "image_url": "https://s3-media1.fl.yelpcdn.com/bphoto/IO6b5U9m0XxjaLFaOZgEIg/o.jpg", "is_closed": false, "url": "https://www.yelp.com/biz/plaza-mexico-restaurant-bar-and-grill-port-charlotte?adjust_creative=IX0BPgmwhVVbGGNYDVN81A&utm_campaign=yelp_api_v3&utm_medium=api_v3_business_search&utm_source=IX0BPgmwhVVbGGNYDVN81A", "review_count": 268, "categories": [{"alias": "mexican", "title": "Mexican"}], "rating": 4.0, "coordinates": {"latitude": 26.9972401, "longitude": -82.1188507}, "transactions": ["delivery", "pickup"], "price": "$$", "location": {"address1": "2390 Tamiami Trl", "address2": "", "address3": "", "city": "Port Charlotte", "zip_code": "33952", "country": "US", "state": "FL", "display_address": ["2390 Tamiami Trl", "Port Charlotte, FL 33952"]}, "phone": "+19413915319", "display_phone": "(941) 391-5319", "distance": 525.7807469515144}, {"id": "ULGTg3Oz42UXcFQmdvGsIA", "alias": "lime-tequila-port-charlotte", "name": "Lime Tequila", "image_url": "https://s3-media2.fl.yelpcdn.com/bphoto/As3MuMUBVa0crVi6UwAG2A/o.jpg", "is_closed": false, "url": "https://www.yelp.com/biz/lime-tequila-port-charlotte?adjust_creative=IX0BPgmwhVVbGGNYDVN81A&utm_campaign=yelp_api_v3&utm_medium=api_v3_business_search&utm_source=IX0BPgmwhVVbGGNYDVN81A", "review_count": 92, "categories": [{"alias": "mexican", "title": "Mexican"}], "rating": 4.0, "coordinates": {"latitude": 27.003448, "longitude": -82.052907}, "transactions": ["delivery", "pickup"], "price": "$$", "location": {"address1": "1968 Kings Hwy", "address2": null, "address3": "", "city": "Port Charlotte", "zip_code": "33980", "country": "US", "state": "FL", "display_address": ["1968 Kings Hwy", "Port Charlotte, FL 33980"]}, "phone": "+19419799485", "display_phone": "(941) 979-9485", "distance": 6629.672607630396}, {"id": "Z5ZpZHX93Fv-ZGeVwTzxrg", "alias": "chilis-port-charlotte", "name": "Chili's", "image_url": "https://s3-media1.fl.yelpcdn.com/bphoto/M4rHPfu8XQsFVoxTo4QFtQ/o.jpg", "is_closed": false, "url": "https://www.yelp.com/biz/chilis-port-charlotte?adjust_creative=IX0BPgmwhVVbGGNYDVN81A&utm_campaign=yelp_api_v3&utm_medium=api_v3_business_search&utm_source=IX0BPgmwhVVbGGNYDVN81A", "review_count": 84, "categories": [{"alias": "tradamerican", "title": "American (Traditional)"}, {"alias": "bars", "title": "Bars"}, {"alias": "tex-mex", "title": "Tex-Mex"}], "rating": 2.5, "coordinates": {"latitude": 27.0108318328857, "longitude": -82.1433563232422}, "transactions": ["delivery", "pickup"], "price": "$$", "location": {"address1": "1471 Tamiami Trl", "address2": "", "address3": "", "city": "Port Charlotte", "zip_code": "33948", "country": "US", "state": "FL", "display_address": ["1471 Tamiami Trl", "Port Charlotte, FL 33948"]}, "phone": "+19412550058", "display_phone": "(941) 255-0058", "distance": 3189.229959206397}, {"id": "yzFao_kxp7490RgRvTbKeA", "alias": "thai-noodle-port-charlotte", "name": "Thai Noodle", "image_url": "https://s3-media1.fl.yelpcdn.com/bphoto/8yLIHzl4Ff6RKlRZgMmoaw/o.jpg", "is_closed": false, "url": "https://www.yelp.com/biz/thai-noodle-port-charlotte?adjust_creative=IX0BPgmwhVVbGGNYDVN81A&utm_campaign=yelp_api_v3&utm_medium=api_v3_business_search&utm_source=IX0BPgmwhVVbGGNYDVN81A", "review_count": 120, "categories": [{"alias": "thai", "title": "Thai"}, {"alias": "noodles", "title": "Noodles"}], "rating": 4.0, "coordinates": {"latitude": 27.00582, "longitude": -82.13094}, "transactions": ["delivery"], "price": "$$", "location": {"address1": "1900 Tamiami Trl", "address2": "Ste 112", "address3": "", "city": "Port Charlotte", "zip_code": "33948", "country": "US", "state": "FL", "display_address": ["1900 Tamiami Trl", "Ste 112", "Port Charlotte, FL 33948"]}, "phone": "+19416240778", "display_phone": "(941) 624-0778", "distance": 1986.1078071344996}, {"id": "5_MFyyzP1wJIa873Xi6naA", "alias": "the-soup-jungle-cafe-port-charlotte", "name": "The Soup Jungle Cafe", "image_url": "https://s3-media1.fl.yelpcdn.com/bphoto/nQtJJlQuG9z5I-wmk0XZhA/o.jpg", "is_closed": false, "url": "https://www.yelp.com/biz/the-soup-jungle-cafe-port-charlotte?adjust_creative=IX0BPgmwhVVbGGNYDVN81A&utm_campaign=yelp_api_v3&utm_medium=api_v3_business_search&utm_source=IX0BPgmwhVVbGGNYDVN81A", "review_count": 26, "categories": [{"alias": "cafes", "title": "Cafes"}], "rating": 4.0, "coordinates": {"latitude": 26.969532429229528, "longitude": -82.07910965751242}, "transactions": ["delivery", "pickup"], "price": "$", "location": {"address1": "4200 Tamiami Trl", "address2": "Ste E", "address3": "", "city": "Port Charlotte", "zip_code": "33952", "country": "US", "state": "FL", "display_address": ["4200 Tamiami Trl", "Ste E", "Port Charlotte, FL 33952"]}, "phone": "+19412583500", "display_phone": "(941) 258-3500", "distance": 4674.657955841616}, {"id": "7FxeYu9679Jp-jJ3ch5J6g", "alias": "bella-napoli-pizzeria-and-restaurant-port-charlotte", "name": "Bella Napoli Pizzeria & Restaurant", "image_url": "https://s3-media1.fl.yelpcdn.com/bphoto/482DFUIoBVPrfffuWMAIew/o.jpg", "is_closed": false, "url": "https://www.yelp.com/biz/bella-napoli-pizzeria-and-restaurant-port-charlotte?adjust_creative=IX0BPgmwhVVbGGNYDVN81A&utm_campaign=yelp_api_v3&utm_medium=api_v3_business_search&utm_source=IX0BPgmwhVVbGGNYDVN81A", "review_count": 206, "categories": [{"alias": "pizza", "title": "Pizza"}, {"alias": "italian", "title": "Italian"}, {"alias": "seafood", "title": "Seafood"}], "rating": 4.0, "coordinates": {"latitude": 27.004681970313275, "longitude": -82.05293786014133}, "transactions": ["delivery"], "price": "$$", "location": {"address1": "1938 Kings Hwy", "address2": "", "address3": "", "city": "Port Charlotte", "zip_code": "33980", "country": "US", "state": "FL", "display_address": ["1938 Kings Hwy", "Port Charlotte, FL 33980"]}, "phone": "+19417648000", "display_phone": "(941) 764-8000", "distance": 6655.0322111742635}, {"id": "pT42OP5OgUIZtWurrFumqg", "alias": "b-and-g-italian-deli-and-meat-market-port-charlotte", "name": "B & G Italian Deli & Meat Market", "image_url": "https://s3-media4.fl.yelpcdn.com/bphoto/EAZIoNXi8mAsf577r_U8GQ/o.jpg", "is_closed": false, "url": "https://www.yelp.com/biz/b-and-g-italian-deli-and-meat-market-port-charlotte?adjust_creative=IX0BPgmwhVVbGGNYDVN81A&utm_campaign=yelp_api_v3&utm_medium=api_v3_business_search&utm_source=IX0BPgmwhVVbGGNYDVN81A", "review_count": 21, "categories": [{"alias": "catering", "title": "Caterers"}, {"alias": "delis", "title": "Delis"}], "rating": 4.0, "coordinates": {"latitude": 26.973178, "longitude": -82.087913}, "transactions": ["delivery"], "price": "$$", "location": {"address1": "3805 Tamiami Trl", "address2": "", "address3": "", "city": "Port Charlotte", "zip_code": "33952", "country": "US", "state": "FL", "display_address": ["3805 Tamiami Trl", "Port Charlotte, FL 33952"]}, "phone": "+19416245445", "display_phone": "(941) 624-5445", "distance": 3729.0612302473855}, {"id": "gKbYFkA2ghLFyIBIw4Rdjg", "alias": "bjs-fresh-produce-port-charlotte", "name": "Bj's Fresh Produce", "image_url": "https://s3-media2.fl.yelpcdn.com/bphoto/Mf3vUr1O0KfdmeCTLdYeVg/o.jpg", "is_closed": false, "url": "https://www.yelp.com/biz/bjs-fresh-produce-port-charlotte?adjust_creative=IX0BPgmwhVVbGGNYDVN81A&utm_campaign=yelp_api_v3&utm_medium=api_v3_business_search&utm_source=IX0BPgmwhVVbGGNYDVN81A", "review_count": 3, "categories": [{"alias": "grocery", "title": "Grocery"}, {"alias": "markets", "title": "Fruits & Veggies"}, {"alias": "meats", "title": "Meat Shops"}], "rating": 4.5, "coordinates": {"latitude": 26.98163, "longitude": -82.09946}, "transactions": [], "location": {"address1": "3315 Tamiami Trl", "address2": "Ste 2", "address3": null, "city": "Port Charlotte", "zip_code": "33952", "country": "US", "state": "FL", "display_address": ["3315 Tamiami Trl", "Ste 2", "Port Charlotte, FL 33952"]}, "phone": "+19413915235", "display_phone": "(941) 391-5235", "distance": 2247.1451219256683}, {"id": "Bqqc6mexC16gmTOyAKhF5Q", "alias": "royal-thai-oriental-restaurant-punta-gorda", "name": "Royal Thai Oriental Restaurant", "image_url": "https://s3-media4.fl.yelpcdn.com/bphoto/w_B9Mkyzv4DzfHGamdCNuA/o.jpg", "is_closed": false, "url": "https://www.yelp.com/biz/royal-thai-oriental-restaurant-punta-gorda?adjust_creative=IX0BPgmwhVVbGGNYDVN81A&utm_campaign=yelp_api_v3&utm_medium=api_v3_business_search&utm_source=IX0BPgmwhVVbGGNYDVN81A", "review_count": 89, "categories": [{"alias": "thai", "title": "Thai"}], "rating": 4.5, "coordinates": {"latitude": 26.969762802124, "longitude": -81.9613647460938}, "transactions": [], "price": "$$", "location": {"address1": "4214 Duncan Rd", "address2": "", "address3": "", "city": "Punta Gorda", "zip_code": "33982", "country": "US", "state": "FL", "display_address": ["4214 Duncan Rd", "Punta Gorda, FL 33982"]}, "phone": "+19416371616", "display_phone": "(941) 637-1616", "distance": 15789.229847724759}, {"id": "i8L0tIEgbqaQalFdBTxGuA", "alias": "amimoto-japanese-restaurant-punta-gorda", "name": "Amimoto Japanese Restaurant", "image_url": "https://s3-media1.fl.yelpcdn.com/bphoto/PcJutrUPTcrPuMGaMLdjMQ/o.jpg", "is_closed": false, "url": "https://www.yelp.com/biz/amimoto-japanese-restaurant-punta-gorda?adjust_creative=IX0BPgmwhVVbGGNYDVN81A&utm_campaign=yelp_api_v3&utm_medium=api_v3_business_search&utm_source=IX0BPgmwhVVbGGNYDVN81A", "review_count": 93, "categories": [{"alias": "japanese", "title": "Japanese"}, {"alias": "sushi", "title": "Sushi Bars"}], "rating": 4.0, "coordinates": {"latitude": 26.91434973323317, "longitude": -82.0467307675325}, "transactions": ["delivery"], "price": "$$", "location": {"address1": "2705 Tamiami Trl", "address2": null, "address3": "", "city": "Punta Gorda", "zip_code": "33950", "country": "US", "state": "FL", "display_address": ["2705 Tamiami Trl", "Punta Gorda, FL 33950"]}, "phone": "+19415051515", "display_phone": "(941) 505-1515", "distance": 11234.495728054302}, {"id": "G0qCdZ97BFB30eYLKZaXig", "alias": "blue-tequila-mexican-restaurant-and-cantina-north-port", "name": "Blue Tequila Mexican Restaurant and Cantina", "image_url": "https://s3-media2.fl.yelpcdn.com/bphoto/T5VZY8K-_C4xxBBUIcYVpA/o.jpg", "is_closed": false, "url": "https://www.yelp.com/biz/blue-tequila-mexican-restaurant-and-cantina-north-port?adjust_creative=IX0BPgmwhVVbGGNYDVN81A&utm_campaign=yelp_api_v3&utm_medium=api_v3_business_search&utm_source=IX0BPgmwhVVbGGNYDVN81A", "review_count": 361, "categories": [{"alias": "mexican", "title": "Mexican"}, {"alias": "soup", "title": "Soup"}], "rating": 4.5, "coordinates": {"latitude": 27.0431039488249, "longitude": -82.2318831458688}, "transactions": ["pickup", "delivery"], "price": "$$", "location": {"address1": "14525 Tamiami Trl", "address2": "", "address3": "", "city": "North Port", "zip_code": "34287", "country": "US", "state": "FL", "display_address": ["14525 Tamiami Trl", "North Port, FL 34287"]}, "phone": "+19418885332", "display_phone": "(941) 888-5332", "distance": 12550.31707217442}, {"id": "7OgdWJfbgNSuXyEZAXUkaw", "alias": "fortune-garden-chinese-restaurant-port-charlotte", "name": "Fortune Garden Chinese Restaurant", "image_url": "https://s3-media3.fl.yelpcdn.com/bphoto/Oe6ZppHZMum7dyOFB5H06g/o.jpg", "is_closed": false, "url": "https://www.yelp.com/biz/fortune-garden-chinese-restaurant-port-charlotte?adjust_creative=IX0BPgmwhVVbGGNYDVN81A&utm_campaign=yelp_api_v3&utm_medium=api_v3_business_search&utm_source=IX0BPgmwhVVbGGNYDVN81A", "review_count": 54, "categories": [{"alias": "chinese", "title": "Chinese"}], "rating": 3.5, "coordinates": {"latitude": 27.00429, "longitude": -82.13211}, "transactions": ["delivery"], "price": "$$", "location": {"address1": "1825 Tamiami Trl", "address2": "Unit B8", "address3": "", "city": "Port Charlotte", "zip_code": "33948", "country": "US", "state": "FL", "display_address": ["1825 Tamiami Trl", "Unit B8", "Port Charlotte, FL 33948"]}, "phone": "+19412551899", "display_phone": "(941) 255-1899", "distance": 1874.2362539544968}, {"id": "gwTx_V2w5RvM426xXGLdvA", "alias": "pho-charlotte-port-charlotte-2", "name": "Pho Charlotte", "image_url": "https://s3-media2.fl.yelpcdn.com/bphoto/jknquCl2fJNAzu2vXGTphg/o.jpg", "is_closed": false, "url": "https://www.yelp.com/biz/pho-charlotte-port-charlotte-2?adjust_creative=IX0BPgmwhVVbGGNYDVN81A&utm_campaign=yelp_api_v3&utm_medium=api_v3_business_search&utm_source=IX0BPgmwhVVbGGNYDVN81A", "review_count": 47, "categories": [{"alias": "vietnamese", "title": "Vietnamese"}], "rating": 5.0, "coordinates": {"latitude": 27.01339, "longitude": -82.14912}, "transactions": ["delivery"], "location": {"address1": "1225 Tamiami Trl", "address2": "Unit A4", "address3": "", "city": "Port Charlotte", "zip_code": "33953", "country": "US", "state": "FL", "display_address": ["1225 Tamiami Trl", "Unit A4", "Port Charlotte, FL 33953"]}, "phone": "+19419799689", "display_phone": "(941) 979-9689", "distance": 3800.5441404820276}, {"id": "QyBBnTyaeOBQh89Eckf-Pg", "alias": "irma-s-tacos-craft-beer-and-tequila-bar-venice-2", "name": "Irma\u2019s Tacos, Craft Beer & Tequila Bar", "image_url": "https://s3-media3.fl.yelpcdn.com/bphoto/FyTJZ4Y42Fg6bzAfH2KhFw/o.jpg", "is_closed": false, "url": "https://www.yelp.com/biz/irma-s-tacos-craft-beer-and-tequila-bar-venice-2?adjust_creative=IX0BPgmwhVVbGGNYDVN81A&utm_campaign=yelp_api_v3&utm_medium=api_v3_business_search&utm_source=IX0BPgmwhVVbGGNYDVN81A", "review_count": 118, "categories": [{"alias": "tacos", "title": "Tacos"}, {"alias": "breweries", "title": "Breweries"}], "rating": 4.0, "coordinates": {"latitude": 27.048198, "longitude": -82.322935}, "transactions": [], "location": {"address1": "12221 Mercado Dr", "address2": "", "address3": null, "city": "Venice", "zip_code": "34293", "country": "US", "state": "FL", "display_address": ["12221 Mercado Dr", "Venice, FL 34293"]}, "phone": "+19416812348", "display_phone": "(941) 681-2348", "distance": 21162.073210040973}, {"id": "JNRnnOQHsDgXeVLSpn2yTA", "alias": "the-thai-cafe-port-charlotte", "name": "The Thai Cafe", "image_url": "https://s3-media3.fl.yelpcdn.com/bphoto/kuwY2vsc0-kG84iRQmUInA/o.jpg", "is_closed": false, "url": "https://www.yelp.com/biz/the-thai-cafe-port-charlotte?adjust_creative=IX0BPgmwhVVbGGNYDVN81A&utm_campaign=yelp_api_v3&utm_medium=api_v3_business_search&utm_source=IX0BPgmwhVVbGGNYDVN81A", "review_count": 119, "categories": [{"alias": "thai", "title": "Thai"}], "rating": 4.0, "coordinates": {"latitude": 26.969566317730887, "longitude": -82.0797215670121}, "transactions": ["pickup", "delivery"], "price": "$$", "location": {"address1": "4200 Tamiami Trl", "address2": "Ste G", "address3": "", "city": "Port Charlotte", "zip_code": "33952", "country": "US", "state": "FL", "display_address": ["4200 Tamiami Trl", "Ste G", "Port Charlotte, FL 33952"]}, "phone": "+19416290727", "display_phone": "(941) 629-0727", "distance": 4621.83795414217}, {"id": "qDX2EtOs1Ga7JvREAe0shw", "alias": "chesapeake-house-placida", "name": "Chesapeake House", "image_url": "https://s3-media2.fl.yelpcdn.com/bphoto/nMnMaIvpaVCi7D1nc-i6pQ/o.jpg", "is_closed": false, "url": "https://www.yelp.com/biz/chesapeake-house-placida?adjust_creative=IX0BPgmwhVVbGGNYDVN81A&utm_campaign=yelp_api_v3&utm_medium=api_v3_business_search&utm_source=IX0BPgmwhVVbGGNYDVN81A", "review_count": 7, "categories": [{"alias": "seafood", "title": "Seafood"}], "rating": 2.0, "coordinates": {"latitude": 26.859787513574933, "longitude": -82.29875945052132}, "transactions": ["pickup", "delivery"], "location": {"address1": "8501 Placida Rd", "address2": "Unit A4", "address3": null, "city": "Placida", "zip_code": "33946", "country": "US", "state": "FL", "display_address": ["8501 Placida Rd", "Unit A4", "Placida, FL 33946"]}, "phone": "+19412145971", "display_phone": "(941) 214-5971", "distance": 23156.389822340734}, {"id": "ZOBfPPHsJPv7j4lsdfeG5A", "alias": "mint-thai-cuisine-punta-gorda", "name": "Mint Thai Cuisine", "image_url": "https://s3-media3.fl.yelpcdn.com/bphoto/GHbK63LFygFgxAdityzagg/o.jpg", "is_closed": false, "url": "https://www.yelp.com/biz/mint-thai-cuisine-punta-gorda?adjust_creative=IX0BPgmwhVVbGGNYDVN81A&utm_campaign=yelp_api_v3&utm_medium=api_v3_business_search&utm_source=IX0BPgmwhVVbGGNYDVN81A", "review_count": 95, "categories": [{"alias": "asianfusion", "title": "Asian Fusion"}, {"alias": "seafood", "title": "Seafood"}, {"alias": "thai", "title": "Thai"}], "rating": 4.0, "coordinates": {"latitude": 26.93384, "longitude": -82.05039}, "transactions": ["delivery"], "price": "$$", "location": {"address1": "209 W Olympia Ave", "address2": "", "address3": null, "city": "Punta Gorda", "zip_code": "33950", "country": "US", "state": "FL", "display_address": ["209 W Olympia Ave", "Punta Gorda, FL 33950"]}, "phone": "+19416218259", "display_phone": "(941) 621-8259", "distance": 9395.104612827485}, {"id": "i5XPT1FcNMB7rOl5pMxmvA", "alias": "deans-south-of-the-border-punta-gorda", "name": "Dean's South of the Border", "image_url": "https://s3-media2.fl.yelpcdn.com/bphoto/q0z5NEFrydSBXQCKfVtlYw/o.jpg", "is_closed": false, "url": "https://www.yelp.com/biz/deans-south-of-the-border-punta-gorda?adjust_creative=IX0BPgmwhVVbGGNYDVN81A&utm_campaign=yelp_api_v3&utm_medium=api_v3_business_search&utm_source=IX0BPgmwhVVbGGNYDVN81A", "review_count": 264, "categories": [{"alias": "tex-mex", "title": "Tex-Mex"}, {"alias": "desserts", "title": "Desserts"}, {"alias": "breakfast_brunch", "title": "Breakfast & Brunch"}], "rating": 3.0, "coordinates": {"latitude": 26.93662, "longitude": -82.05019}, "transactions": ["delivery"], "price": "$$", "location": {"address1": "130 Tamiami Trl", "address2": "", "address3": "", "city": "Punta Gorda", "zip_code": "33950", "country": "US", "state": "FL", "display_address": ["130 Tamiami Trl", "Punta Gorda, FL 33950"]}, "phone": "+19415756100", "display_phone": "(941) 575-6100", "distance": 9195.60577856306}, {"id": "c886NNOjQDheAJmfHve2qg", "alias": "placida-grill-englewood-3", "name": "Placida grill", "image_url": "", "is_closed": false, "url": "https://www.yelp.com/biz/placida-grill-englewood-3?adjust_creative=IX0BPgmwhVVbGGNYDVN81A&utm_campaign=yelp_api_v3&utm_medium=api_v3_business_search&utm_source=IX0BPgmwhVVbGGNYDVN81A", "review_count": 1, "categories": [{"alias": "seafood", "title": "Seafood"}, {"alias": "burgers", "title": "Burgers"}, {"alias": "breweries", "title": "Breweries"}], "rating": 3.0, "coordinates": {"latitude": 26.888157740484655, "longitude": -82.3077102}, "transactions": [], "location": {"address1": "5855 Placida Rd", "address2": "Unit 100", "address3": "", "city": "Englewood", "zip_code": "34224", "country": "US", "state": "FL", "display_address": ["5855 Placida Rd", "Unit 100", "Englewood, FL 34224"]}, "phone": "+19416882014", "display_phone": "(941) 688-2014", "distance": 22034.222383720222}, {"id": "YUHMP1etk1pRU2XD7qpSbA", "alias": "all-star-sports-grill-port-charlotte", "name": "All-Star Sports Grill", "image_url": "https://s3-media1.fl.yelpcdn.com/bphoto/oVQrd_Qc3u89WwkTjgj0vg/o.jpg", "is_closed": false, "url": "https://www.yelp.com/biz/all-star-sports-grill-port-charlotte?adjust_creative=IX0BPgmwhVVbGGNYDVN81A&utm_campaign=yelp_api_v3&utm_medium=api_v3_business_search&utm_source=IX0BPgmwhVVbGGNYDVN81A", "review_count": 48, "categories": [{"alias": "sportsbars", "title": "Sports Bars"}, {"alias": "tradamerican", "title": "American (Traditional)"}, {"alias": "breakfast_brunch", "title": "Breakfast & Brunch"}], "rating": 3.5, "coordinates": {"latitude": 26.99765, "longitude": -82.11938}, "transactions": ["pickup", "delivery"], "price": "$$", "location": {"address1": "2360 Tamiami Trl", "address2": null, "address3": "", "city": "Port Charlotte", "zip_code": "33952", "country": "US", "state": "FL", "display_address": ["2360 Tamiami Trl", "Port Charlotte, FL 33952"]}, "phone": "+19417434140", "display_phone": "(941) 743-4140", "distance": 594.3859993478089}, {"id": "otHVBGJfG5YLumJ16D3-Kw", "alias": "reef-grill-placida", "name": "Reef Grill", "image_url": "", "is_closed": false, "url": "https://www.yelp.com/biz/reef-grill-placida?adjust_creative=IX0BPgmwhVVbGGNYDVN81A&utm_campaign=yelp_api_v3&utm_medium=api_v3_business_search&utm_source=IX0BPgmwhVVbGGNYDVN81A", "review_count": 1, "categories": [{"alias": "seafood", "title": "Seafood"}], "rating": 2.0, "coordinates": {"latitude": 26.857809, "longitude": -82.297565}, "transactions": [], "location": {"address1": "8501 Placida Rd", "address2": "Unit A15", "address3": "", "city": "Placida", "zip_code": "33946", "country": "US", "state": "FL", "display_address": ["8501 Placida Rd", "Unit A15", "Placida, FL 33946"]}, "phone": "+19418281069", "display_phone": "(941) 828-1069", "distance": 23206.617969942276}, {"id": "WxOm9VWFWRNcmUFwdsiNVg", "alias": "china-1-port-charlotte", "name": "China 1", "image_url": "https://s3-media2.fl.yelpcdn.com/bphoto/aq5nB-MIj-pizrgaWHHK1Q/o.jpg", "is_closed": false, "url": "https://www.yelp.com/biz/china-1-port-charlotte?adjust_creative=IX0BPgmwhVVbGGNYDVN81A&utm_campaign=yelp_api_v3&utm_medium=api_v3_business_search&utm_source=IX0BPgmwhVVbGGNYDVN81A", "review_count": 13, "categories": [{"alias": "chinese", "title": "Chinese"}, {"alias": "seafood", "title": "Seafood"}], "rating": 3.0, "coordinates": {"latitude": 27.0095500946045, "longitude": -82.1321792602539}, "transactions": ["pickup", "delivery"], "price": "$$", "location": {"address1": "19451 Cochran Blvd", "address2": null, "address3": null, "city": "Port Charlotte", "zip_code": "33948", "country": "US", "state": "FL", "display_address": ["19451 Cochran Blvd", "Port Charlotte, FL 33948"]}, "phone": "+19416252888", "display_phone": "(941) 625-2888", "distance": 2367.07175779528}, {"id": "Tlsw9QA5Z0X0xqaNSbx3aw", "alias": "noys-bistro-and-lounge-rotonda-west", "name": "Noy's Bistro and Lounge", "image_url": "https://s3-media3.fl.yelpcdn.com/bphoto/xRwtT_syNI_Zmur7V3fIkw/o.jpg", "is_closed": false, "url": "https://www.yelp.com/biz/noys-bistro-and-lounge-rotonda-west?adjust_creative=IX0BPgmwhVVbGGNYDVN81A&utm_campaign=yelp_api_v3&utm_medium=api_v3_business_search&utm_source=IX0BPgmwhVVbGGNYDVN81A", "review_count": 70, "categories": [{"alias": "thai", "title": "Thai"}, {"alias": "japanese", "title": "Japanese"}], "rating": 4.0, "coordinates": {"latitude": 26.9129189932368, "longitude": -82.2288053110242}, "transactions": ["delivery"], "price": "$$", "location": {"address1": "31 Chailett Rd", "address2": "Unit 7", "address3": "", "city": "Rotonda West", "zip_code": "33947", "country": "US", "state": "FL", "display_address": ["31 Chailett Rd", "Unit 7", "Rotonda West, FL 33947"]}, "phone": "+19412145194", "display_phone": "(941) 214-5194", "distance": 14045.58211219063}, {"id": "iEBpR_U7tW1HDD_bCPg_Bw", "alias": "olde-world-restaurant-north-port-2", "name": "Olde World Restaurant", "image_url": "https://s3-media3.fl.yelpcdn.com/bphoto/YNOigAqKeei4-UINBhUXSw/o.jpg", "is_closed": false, "url": "https://www.yelp.com/biz/olde-world-restaurant-north-port-2?adjust_creative=IX0BPgmwhVVbGGNYDVN81A&utm_campaign=yelp_api_v3&utm_medium=api_v3_business_search&utm_source=IX0BPgmwhVVbGGNYDVN81A", "review_count": 132, "categories": [{"alias": "newamerican", "title": "American (New)"}, {"alias": "salad", "title": "Salad"}, {"alias": "italian", "title": "Italian"}], "rating": 3.0, "coordinates": {"latitude": 27.043672, "longitude": -82.233604}, "transactions": ["delivery"], "price": "$$", "location": {"address1": "14415 Tamiami Trl", "address2": "", "address3": "", "city": "North Port", "zip_code": "34287", "country": "US", "state": "FL", "display_address": ["14415 Tamiami Trl", "North Port, FL 34287"]}, "phone": "+19414261155", "display_phone": "(941) 426-1155", "distance": 12747.047013841388}, {"id": "8h7hreFZprkx9jW6T9P6Yw", "alias": "carrabbas-italian-grill-pt-charlotte-2", "name": "Carrabba's Italian Grill", "image_url": "https://s3-media4.fl.yelpcdn.com/bphoto/Mijj8YdvozXzWIzGcqUrCg/o.jpg", "is_closed": false, "url": "https://www.yelp.com/biz/carrabbas-italian-grill-pt-charlotte-2?adjust_creative=IX0BPgmwhVVbGGNYDVN81A&utm_campaign=yelp_api_v3&utm_medium=api_v3_business_search&utm_source=IX0BPgmwhVVbGGNYDVN81A", "review_count": 110, "categories": [{"alias": "italian", "title": "Italian"}, {"alias": "seafood", "title": "Seafood"}], "rating": 3.5, "coordinates": {"latitude": 27.005552172833728, "longitude": -82.13243074902978}, "transactions": ["pickup", "delivery"], "price": "$$", "location": {"address1": "1811 N Tamiami Trl", "address2": "", "address3": "", "city": "Pt. Charlotte", "zip_code": "33948", "country": "US", "state": "FL", "display_address": ["1811 N Tamiami Trl", "Pt. Charlotte, FL 33948"]}, "phone": "+19417435299", "display_phone": "(941) 743-5299", "distance": 1997.1433329064964}, {"id": "nLI-_r0PJ_n9-j6gO2b5zg", "alias": "red-lobster-port-charlotte", "name": "Red Lobster", "image_url": "https://s3-media2.fl.yelpcdn.com/bphoto/MITn6PcwYXj04k5tMCCr8A/o.jpg", "is_closed": false, "url": "https://www.yelp.com/biz/red-lobster-port-charlotte?adjust_creative=IX0BPgmwhVVbGGNYDVN81A&utm_campaign=yelp_api_v3&utm_medium=api_v3_business_search&utm_source=IX0BPgmwhVVbGGNYDVN81A", "review_count": 56, "categories": [{"alias": "seafood", "title": "Seafood"}, {"alias": "tradamerican", "title": "American (Traditional)"}], "rating": 3.5, "coordinates": {"latitude": 27.011956, "longitude": -82.146564}, "transactions": ["pickup", "delivery"], "price": "$$", "location": {"address1": "1331 Tamiami Trl", "address2": "NEAR PORT CHARLOTTE MALL", "address3": "", "city": "Port Charlotte", "zip_code": "33948", "country": "US", "state": "FL", "display_address": ["1331 Tamiami Trl", "NEAR PORT CHARLOTTE MALL", "Port Charlotte, FL 33948"]}, "phone": "+19416257745", "display_phone": "(941) 625-7745", "distance": 3514.342589286118}, {"id": "FhcxJ2EiS6LOrzBvqU8ZWw", "alias": "asian-yummy-food-punta-gorda", "name": "Asian Yummy Food", "image_url": "https://s3-media1.fl.yelpcdn.com/bphoto/kW8kUT_T5q6eGznDdsR0rg/o.jpg", "is_closed": false, "url": "https://www.yelp.com/biz/asian-yummy-food-punta-gorda?adjust_creative=IX0BPgmwhVVbGGNYDVN81A&utm_campaign=yelp_api_v3&utm_medium=api_v3_business_search&utm_source=IX0BPgmwhVVbGGNYDVN81A", "review_count": 5, "categories": [{"alias": "salad", "title": "Salad"}, {"alias": "sushi", "title": "Sushi Bars"}, {"alias": "soup", "title": "Soup"}], "rating": 2.5, "coordinates": {"latitude": 26.8885773, "longitude": -82.02555780000002}, "transactions": ["pickup", "delivery"], "location": {"address1": "3941 Tamiami Trl", "address2": "Unit 3135", "address3": null, "city": "Punta Gorda", "zip_code": "33950", "country": "US", "state": "FL", "display_address": ["3941 Tamiami Trl", "Unit 3135", "Punta Gorda, FL 33950"]}, "phone": "+19418441215", "display_phone": "(941) 844-1215", "distance": 14782.964792413639}, {"id": "jFFxPgPUZEOlAxuWQ9V25w", "alias": "flavor-of-india-restaurant-port-charlotte-3", "name": "Flavor of India Restaurant", "image_url": "https://s3-media3.fl.yelpcdn.com/bphoto/OQeQ2W53gZsqRQqvRvbd2w/o.jpg", "is_closed": false, "url": "https://www.yelp.com/biz/flavor-of-india-restaurant-port-charlotte-3?adjust_creative=IX0BPgmwhVVbGGNYDVN81A&utm_campaign=yelp_api_v3&utm_medium=api_v3_business_search&utm_source=IX0BPgmwhVVbGGNYDVN81A", "review_count": 85, "categories": [{"alias": "indpak", "title": "Indian"}], "rating": 4.5, "coordinates": {"latitude": 27.0167, "longitude": -82.1532}, "transactions": ["pickup", "delivery"], "price": "$$", "location": {"address1": "1032 Tamiami Trl", "address2": "Ste 11", "address3": null, "city": "Port Charlotte", "zip_code": "33953", "country": "US", "state": "FL", "display_address": ["1032 Tamiami Trl", "Ste 11", "Port Charlotte, FL 33953"]}, "phone": "+19418897411", "display_phone": "(941) 889-7411", "distance": 4367.586099650103}, {"id": "5HZDJRcUMMbciv1xgClgjQ", "alias": "tasty-wok-port-charlotte", "name": "Tasty Wok", "image_url": "https://s3-media4.fl.yelpcdn.com/bphoto/uR85ww9VQ4-ZpokaGDlztQ/o.jpg", "is_closed": false, "url": "https://www.yelp.com/biz/tasty-wok-port-charlotte?adjust_creative=IX0BPgmwhVVbGGNYDVN81A&utm_campaign=yelp_api_v3&utm_medium=api_v3_business_search&utm_source=IX0BPgmwhVVbGGNYDVN81A", "review_count": 16, "categories": [{"alias": "chinese", "title": "Chinese"}, {"alias": "seafood", "title": "Seafood"}, {"alias": "soup", "title": "Soup"}], "rating": 3.5, "coordinates": {"latitude": 26.966591, "longitude": -82.080233}, "transactions": ["pickup", "delivery"], "price": "$", "location": {"address1": "4265 Tamiami Trl", "address2": "Unit B", "address3": null, "city": "Port Charlotte", "zip_code": "33980", "country": "US", "state": "FL", "display_address": ["4265 Tamiami Trl", "Unit B", "Port Charlotte, FL 33980"]}, "phone": "+19416273886", "display_phone": "(941) 627-3886", "distance": 4771.133020191092}, {"id": "RIT5x7i667HkDZTK5tWWpg", "alias": "spinnaker-cafe-englewood", "name": "Spinnaker Cafe", "image_url": "https://s3-media1.fl.yelpcdn.com/bphoto/D_2HJr_jD4BTn2PJ7Ly80g/o.jpg", "is_closed": false, "url": "https://www.yelp.com/biz/spinnaker-cafe-englewood?adjust_creative=IX0BPgmwhVVbGGNYDVN81A&utm_campaign=yelp_api_v3&utm_medium=api_v3_business_search&utm_source=IX0BPgmwhVVbGGNYDVN81A", "review_count": 118, "categories": [{"alias": "breakfast_brunch", "title": "Breakfast & Brunch"}, {"alias": "tradamerican", "title": "American (Traditional)"}], "rating": 3.5, "coordinates": {"latitude": 26.93427, "longitude": -82.28944}, "transactions": ["delivery"], "price": "$", "location": {"address1": "3542 N Access Rd", "address2": "Ste D", "address3": "", "city": "Englewood", "zip_code": "34224", "country": "US", "state": "FL", "display_address": ["3542 N Access Rd", "Ste D", "Englewood, FL 34224"]}, "phone": "+19414752238", "display_phone": "(941) 475-2238", "distance": 18105.952517000722}, {"id": "loiLUlrn_DjXcHD-4uPB4A", "alias": "pink-tequila-north-port-2", "name": "Pink Tequila", "image_url": "https://s3-media2.fl.yelpcdn.com/bphoto/Kib8HodSnlIw1fiTsMdRlA/o.jpg", "is_closed": false, "url": "https://www.yelp.com/biz/pink-tequila-north-port-2?adjust_creative=IX0BPgmwhVVbGGNYDVN81A&utm_campaign=yelp_api_v3&utm_medium=api_v3_business_search&utm_source=IX0BPgmwhVVbGGNYDVN81A", "review_count": 134, "categories": [{"alias": "mexican", "title": "Mexican"}], "rating": 4.0, "coordinates": {"latitude": 27.070298, "longitude": -82.158301}, "transactions": ["pickup", "delivery"], "location": {"address1": "1163 N Toledo Blade Blvd", "address2": "", "address3": null, "city": "North Port", "zip_code": "34288", "country": "US", "state": "FL", "display_address": ["1163 N Toledo Blade Blvd", "North Port, FL 34288"]}, "phone": "+19415646644", "display_phone": "(941) 564-6644", "distance": 9507.559659510807}, {"id": "NXlbJebdv_Ko-G4nI8Knfw", "alias": "mamma-lilla-pizzeria-and-italian-restaurant-port-charlotte", "name": "Mamma Lilla Pizzeria & Italian Restaurant", "image_url": "https://s3-media1.fl.yelpcdn.com/bphoto/vzYpWFc9VgO-5oxv5GsEtw/o.jpg", "is_closed": false, "url": "https://www.yelp.com/biz/mamma-lilla-pizzeria-and-italian-restaurant-port-charlotte?adjust_creative=IX0BPgmwhVVbGGNYDVN81A&utm_campaign=yelp_api_v3&utm_medium=api_v3_business_search&utm_source=IX0BPgmwhVVbGGNYDVN81A", "review_count": 18, "categories": [{"alias": "italian", "title": "Italian"}, {"alias": "pizza", "title": "Pizza"}, {"alias": "salad", "title": "Salad"}], "rating": 3.0, "coordinates": {"latitude": 27.01105, "longitude": -82.14949}, "transactions": ["pickup", "delivery"], "location": {"address1": "1100 El Jobean Rd", "address2": "Unit 126", "address3": null, "city": "Port Charlotte", "zip_code": "33948", "country": "US", "state": "FL", "display_address": ["1100 El Jobean Rd", "Unit 126", "Port Charlotte, FL 33948"]}, "phone": "+19417661413", "display_phone": "(941) 766-1413", "distance": 3688.7615058570145}, {"id": "WLTYDnupWym6Y6mVHqx7Dg", "alias": "iasia-north-port", "name": "IAsia", "image_url": "https://s3-media4.fl.yelpcdn.com/bphoto/jCmVTMO20gsT7VfdutRMng/o.jpg", "is_closed": false, "url": "https://www.yelp.com/biz/iasia-north-port?adjust_creative=IX0BPgmwhVVbGGNYDVN81A&utm_campaign=yelp_api_v3&utm_medium=api_v3_business_search&utm_source=IX0BPgmwhVVbGGNYDVN81A", "review_count": 58, "categories": [{"alias": "japanese", "title": "Japanese"}, {"alias": "chinese", "title": "Chinese"}], "rating": 3.0, "coordinates": {"latitude": 27.03746, "longitude": -82.2138}, "transactions": ["pickup", "delivery"], "price": "$", "location": {"address1": "17399 Tamiami Trl", "address2": "", "address3": "", "city": "North Port", "zip_code": "33954", "country": "US", "state": "FL", "display_address": ["17399 Tamiami Trl", "North Port, FL 33954"]}, "phone": "+19414292668", "display_phone": "(941) 429-2668", "distance": 10666.377930716924}, {"id": "hYwZOGiwKpsUQpd8SuHs-Q", "alias": "la-rocca-italian-restaurant-bar-and-pizzeria-north-port", "name": "La Rocca Italian Restaurant Bar & Pizzeria", "image_url": "https://s3-media3.fl.yelpcdn.com/bphoto/h6amzdLtc1emcaa6c59D2Q/o.jpg", "is_closed": false, "url": "https://www.yelp.com/biz/la-rocca-italian-restaurant-bar-and-pizzeria-north-port?adjust_creative=IX0BPgmwhVVbGGNYDVN81A&utm_campaign=yelp_api_v3&utm_medium=api_v3_business_search&utm_source=IX0BPgmwhVVbGGNYDVN81A", "review_count": 1, "categories": [{"alias": "italian", "title": "Italian"}, {"alias": "seafood", "title": "Seafood"}, {"alias": "pizza", "title": "Pizza"}], "rating": 4.0, "coordinates": {"latitude": 27.046285, "longitude": -82.262797}, "transactions": [], "location": {"address1": "12500 S Tamiami Trl", "address2": "", "address3": null, "city": "North Port", "zip_code": "34287", "country": "US", "state": "FL", "display_address": ["12500 S Tamiami Trl", "North Port, FL 34287"]}, "phone": "+19414239211", "display_phone": "(941) 423-9211", "distance": 15478.590236275728}, {"id": "qUPFaxfzyqq1TSIEfOjEfA", "alias": "china-wok-port-charlotte", "name": "China Wok", "image_url": "https://s3-media3.fl.yelpcdn.com/bphoto/ZgdCr5BQPyZ2YGVrF9ZS-g/o.jpg", "is_closed": false, "url": "https://www.yelp.com/biz/china-wok-port-charlotte?adjust_creative=IX0BPgmwhVVbGGNYDVN81A&utm_campaign=yelp_api_v3&utm_medium=api_v3_business_search&utm_source=IX0BPgmwhVVbGGNYDVN81A", "review_count": 40, "categories": [{"alias": "chinese", "title": "Chinese"}, {"alias": "asianfusion", "title": "Asian Fusion"}], "rating": 3.5, "coordinates": {"latitude": 27.002124, "longitude": -82.124147}, "transactions": ["pickup", "delivery"], "price": "$", "location": {"address1": "2150 Tamiami Trl", "address2": "", "address3": "Unti 11", "city": "Port Charlotte", "zip_code": "33948", "country": "US", "state": "FL", "display_address": ["2150 Tamiami Trl", "Unti 11", "Port Charlotte, FL 33948"]}, "phone": "+19416298099", "display_phone": "(941) 629-8099", "distance": 1207.5430714889544}, {"id": "Tc3JVk81iBZ_gWaXpjgs8Q", "alias": "olympia-resturant-port-charlotte", "name": "Olympia Resturant", "image_url": "https://s3-media4.fl.yelpcdn.com/bphoto/dUTo8tmwlCEKEZ-iJwhDKQ/o.jpg", "is_closed": false, "url": "https://www.yelp.com/biz/olympia-resturant-port-charlotte?adjust_creative=IX0BPgmwhVVbGGNYDVN81A&utm_campaign=yelp_api_v3&utm_medium=api_v3_business_search&utm_source=IX0BPgmwhVVbGGNYDVN81A", "review_count": 78, "categories": [{"alias": "newamerican", "title": "American (New)"}, {"alias": "italian", "title": "Italian"}, {"alias": "breakfast_brunch", "title": "Breakfast & Brunch"}], "rating": 3.5, "coordinates": {"latitude": 26.98282406527246, "longitude": -82.1012662647542}, "transactions": ["pickup", "delivery"], "price": "$", "location": {"address1": "3245 Tamiami Trl", "address2": "", "address3": "", "city": "Port Charlotte", "zip_code": "33952", "country": "US", "state": "FL", "display_address": ["3245 Tamiami Trl", "Port Charlotte, FL 33952"]}, "phone": "+19412553440", "display_phone": "(941) 255-3440", "distance": 2028.7855782696895}, {"id": "Pzu1wfPfVJ9DFoq7qkR_9A", "alias": "empire-bagels-punta-gorda", "name": "Empire Bagels", "image_url": "https://s3-media1.fl.yelpcdn.com/bphoto/WmfR9RlsZpMKPwu3pP0ubw/o.jpg", "is_closed": false, "url": "https://www.yelp.com/biz/empire-bagels-punta-gorda?adjust_creative=IX0BPgmwhVVbGGNYDVN81A&utm_campaign=yelp_api_v3&utm_medium=api_v3_business_search&utm_source=IX0BPgmwhVVbGGNYDVN81A", "review_count": 16, "categories": [{"alias": "salad", "title": "Salad"}, {"alias": "bagels", "title": "Bagels"}, {"alias": "sandwiches", "title": "Sandwiches"}], "rating": 3.5, "coordinates": {"latitude": 26.947795, "longitude": -81.9984319}, "transactions": ["pickup", "delivery"], "location": {"address1": "27680 Bermont Rd", "address2": "", "address3": null, "city": "Punta Gorda", "zip_code": "33982", "country": "US", "state": "FL", "display_address": ["27680 Bermont Rd", "Punta Gorda, FL 33982"]}, "phone": "+19413478361", "display_phone": "(941) 347-8361", "distance": 12908.71984043331}, {"id": "vx-sURQj7TLKL1WqTYFB1g", "alias": "italia-punta-gorda", "name": "Italia", "image_url": "https://s3-media3.fl.yelpcdn.com/bphoto/EpK5127DVROkOl7p9soMPA/o.jpg", "is_closed": false, "url": "https://www.yelp.com/biz/italia-punta-gorda?adjust_creative=IX0BPgmwhVVbGGNYDVN81A&utm_campaign=yelp_api_v3&utm_medium=api_v3_business_search&utm_source=IX0BPgmwhVVbGGNYDVN81A", "review_count": 82, "categories": [{"alias": "italian", "title": "Italian"}], "rating": 4.0, "coordinates": {"latitude": 26.9358104467392, "longitude": -82.0503696799278}, "transactions": ["delivery"], "price": "$$", "location": {"address1": "127 W Marion Ave", "address2": "", "address3": "", "city": "Punta Gorda", "zip_code": "33950", "country": "US", "state": "FL", "display_address": ["127 W Marion Ave", "Punta Gorda, FL 33950"]}, "phone": "+19416397655", "display_phone": "(941) 639-7655", "distance": 9246.618886251837}, {"id": "OEmxdstGEsxVyHvpP1Ke5A", "alias": "beef-o-bradys-punta-gorda", "name": "Beef 'O' Brady's", "image_url": "https://s3-media1.fl.yelpcdn.com/bphoto/J49JiPPLAedVwQg3LRhwhg/o.jpg", "is_closed": false, "url": "https://www.yelp.com/biz/beef-o-bradys-punta-gorda?adjust_creative=IX0BPgmwhVVbGGNYDVN81A&utm_campaign=yelp_api_v3&utm_medium=api_v3_business_search&utm_source=IX0BPgmwhVVbGGNYDVN81A", "review_count": 38, "categories": [{"alias": "sportsbars", "title": "Sports Bars"}, {"alias": "pubs", "title": "Pubs"}, {"alias": "tradamerican", "title": "American (Traditional)"}], "rating": 3.0, "coordinates": {"latitude": 26.928388490520785, "longitude": -82.0449346564621}, "transactions": ["pickup", "delivery"], "price": "$$", "location": {"address1": "1105 Taylor Rd", "address2": null, "address3": null, "city": "Punta Gorda", "zip_code": "33950", "country": "US", "state": "FL", "display_address": ["1105 Taylor Rd", "Punta Gorda, FL 33950"]}, "phone": "+19415052333", "display_phone": "(941) 505-2333", "distance": 10203.593541883105}, {"id": "WrsPQMKNsLUEr67tUvrzzA", "alias": "cool-pickle-in-paradise-placida", "name": "Cool Pickle In Paradise", "image_url": "https://s3-media1.fl.yelpcdn.com/bphoto/NaUsfqHU56X-HnZKhIZ98w/o.jpg", "is_closed": false, "url": "https://www.yelp.com/biz/cool-pickle-in-paradise-placida?adjust_creative=IX0BPgmwhVVbGGNYDVN81A&utm_campaign=yelp_api_v3&utm_medium=api_v3_business_search&utm_source=IX0BPgmwhVVbGGNYDVN81A", "review_count": 8, "categories": [{"alias": "seafood", "title": "Seafood"}, {"alias": "sandwiches", "title": "Sandwiches"}, {"alias": "tradamerican", "title": "American (Traditional)"}], "rating": 2.5, "coordinates": {"latitude": 26.85984110042285, "longitude": -82.29889792242952}, "transactions": [], "location": {"address1": "8501 Placida Rd", "address2": "", "address3": null, "city": "Placida", "zip_code": "33946", "country": "US", "state": "FL", "display_address": ["8501 Placida Rd", "Placida, FL 33946"]}, "phone": "+19412145971", "display_phone": "(941) 214-5971", "distance": 23163.17949311149}, {"id": "OQ0uzBJNW9QK50_rHV3dcg", "alias": "king-house-chinese-restaurant-punta-gorda", "name": "King House Chinese Restaurant", "image_url": "https://s3-media3.fl.yelpcdn.com/bphoto/4SlmokoTymEX0pNfD6C_zA/o.jpg", "is_closed": false, "url": "https://www.yelp.com/biz/king-house-chinese-restaurant-punta-gorda?adjust_creative=IX0BPgmwhVVbGGNYDVN81A&utm_campaign=yelp_api_v3&utm_medium=api_v3_business_search&utm_source=IX0BPgmwhVVbGGNYDVN81A", "review_count": 26, "categories": [{"alias": "chinese", "title": "Chinese"}], "rating": 4.0, "coordinates": {"latitude": 26.948384, "longitude": -81.998639}, "transactions": [], "price": "$", "location": {"address1": "27680 Bermont Rd", "address2": "", "address3": "", "city": "Punta Gorda", "zip_code": "33982", "country": "US", "state": "FL", "display_address": ["27680 Bermont Rd", "Punta Gorda, FL 33982"]}, "phone": "+19416399988", "display_phone": "(941) 639-9988", "distance": 12864.677436866717}, {"id": "Yle4oMHZt2XNZ8C0aA4eWQ", "alias": "pho-saigon-punta-gorda-punta-gorda-2", "name": "Pho Saigon Punta Gorda", "image_url": "https://s3-media2.fl.yelpcdn.com/bphoto/SVD0wTSxhc-fpii20hBXbA/o.jpg", "is_closed": false, "url": "https://www.yelp.com/biz/pho-saigon-punta-gorda-punta-gorda-2?adjust_creative=IX0BPgmwhVVbGGNYDVN81A&utm_campaign=yelp_api_v3&utm_medium=api_v3_business_search&utm_source=IX0BPgmwhVVbGGNYDVN81A", "review_count": 118, "categories": [{"alias": "vietnamese", "title": "Vietnamese"}, {"alias": "noodles", "title": "Noodles"}], "rating": 4.0, "coordinates": {"latitude": 26.9348644578256, "longitude": -82.0483144402064}, "transactions": ["pickup", "delivery"], "price": "$", "location": {"address1": "318 Tamiami Trl", "address2": "Unit 115-117", "address3": null, "city": "Punta Gorda", "zip_code": "33950", "country": "US", "state": "FL", "display_address": ["318 Tamiami Trl", "Unit 115-117", "Punta Gorda, FL 33950"]}, "phone": "+19415757799", "display_phone": "(941) 575-7799", "distance": 9465.249219666583}, {"id": "q4HpgklySe4jG5vMSqpVVw", "alias": "liquor-depot-englewood-2", "name": "Liquor Depot", "image_url": "", "is_closed": false, "url": "https://www.yelp.com/biz/liquor-depot-englewood-2?adjust_creative=IX0BPgmwhVVbGGNYDVN81A&utm_campaign=yelp_api_v3&utm_medium=api_v3_business_search&utm_source=IX0BPgmwhVVbGGNYDVN81A", "review_count": 1, "categories": [{"alias": "beer_and_wine", "title": "Beer, Wine & Spirits"}], "rating": 5.0, "coordinates": {"latitude": 26.934336609336874, "longitude": -82.31930027362073}, "transactions": ["pickup", "delivery"], "location": {"address1": "2485 S McCall Rd", "address2": null, "address3": "", "city": "Englewood", "zip_code": "34224", "country": "US", "state": "FL", "display_address": ["2485 S McCall Rd", "Englewood, FL 34224"]}, "phone": "", "display_phone": "", "distance": 20905.266443434237}, {"id": "YqaoqeYnYJSKpYCIF7O_0w", "alias": "7-eleven-punta-gorda-4", "name": "7-Eleven", "image_url": "", "is_closed": false, "url": "https://www.yelp.com/biz/7-eleven-punta-gorda-4?adjust_creative=IX0BPgmwhVVbGGNYDVN81A&utm_campaign=yelp_api_v3&utm_medium=api_v3_business_search&utm_source=IX0BPgmwhVVbGGNYDVN81A", "review_count": 1, "categories": [{"alias": "convenience", "title": "Convenience Stores"}, {"alias": "coffee", "title": "Coffee & Tea"}], "rating": 1.0, "coordinates": {"latitude": 26.945682506735, "longitude": -82.00344489253116}, "transactions": ["pickup", "delivery"], "price": "$", "location": {"address1": "5800 Duncan Rd", "address2": null, "address3": null, "city": "Punta Gorda", "zip_code": "33982", "country": "US", "state": "FL", "display_address": ["5800 Duncan Rd", "Punta Gorda, FL 33982"]}, "phone": "+19416398211", "display_phone": "(941) 639-8211", "distance": 12547.102607877798}, {"id": "7UxUMNzsVkodJUjzvuwFsg", "alias": "7-eleven-port-charlotte", "name": "7-Eleven", "image_url": "", "is_closed": false, "url": "https://www.yelp.com/biz/7-eleven-port-charlotte?adjust_creative=IX0BPgmwhVVbGGNYDVN81A&utm_campaign=yelp_api_v3&utm_medium=api_v3_business_search&utm_source=IX0BPgmwhVVbGGNYDVN81A", "review_count": 5, "categories": [{"alias": "convenience", "title": "Convenience Stores"}, {"alias": "coffee", "title": "Coffee & Tea"}], "rating": 3.0, "coordinates": {"latitude": 26.9816244, "longitude": -82.0975185}, "transactions": ["pickup", "delivery"], "price": "$", "location": {"address1": "3362 Tamiami Trl", "address2": null, "address3": null, "city": "Port Charlotte", "zip_code": "33952", "country": "US", "state": "FL", "display_address": ["3362 Tamiami Trl", "Port Charlotte, FL 33952"]}, "phone": "+19416130180", "display_phone": "(941) 613-0180", "distance": 2416.197478720675}, {"id": "axm0jX6f4y7v-tdtGOskHg", "alias": "obees-sub-shop-port-charlotte-2", "name": "Obee's Sub Shop", "image_url": "", "is_closed": false, "url": "https://www.yelp.com/biz/obees-sub-shop-port-charlotte-2?adjust_creative=IX0BPgmwhVVbGGNYDVN81A&utm_campaign=yelp_api_v3&utm_medium=api_v3_business_search&utm_source=IX0BPgmwhVVbGGNYDVN81A", "review_count": 8, "categories": [{"alias": "sandwiches", "title": "Sandwiches"}, {"alias": "salad", "title": "Salad"}, {"alias": "wraps", "title": "Wraps"}], "rating": 3.0, "coordinates": {"latitude": 26.964419, "longitude": -82.068274}, "transactions": ["pickup", "delivery"], "price": "$", "location": {"address1": "4300 Kings Hwy", "address2": "", "address3": "", "city": "Port Charlotte", "zip_code": "33980", "country": "US", "state": "FL", "display_address": ["4300 Kings Hwy", "Port Charlotte, FL 33980"]}, "phone": "+19417641331", "display_phone": "(941) 764-1331", "distance": 5885.952198237216}, {"id": "qDgSCAuGMN3hGEoNiYJawA", "alias": "china-wok-port-charlotte-3", "name": "China Wok", "image_url": "https://s3-media1.fl.yelpcdn.com/bphoto/HMajs1JzteSEjZoSRKrksw/o.jpg", "is_closed": false, "url": "https://www.yelp.com/biz/china-wok-port-charlotte-3?adjust_creative=IX0BPgmwhVVbGGNYDVN81A&utm_campaign=yelp_api_v3&utm_medium=api_v3_business_search&utm_source=IX0BPgmwhVVbGGNYDVN81A", "review_count": 33, "categories": [{"alias": "chinese", "title": "Chinese"}, {"alias": "seafood", "title": "Seafood"}, {"alias": "tradamerican", "title": "American (Traditional)"}], "rating": 3.5, "coordinates": {"latitude": 26.9318061284103, "longitude": -82.2240513052264}, "transactions": ["delivery"], "price": "$$", "location": {"address1": "13435 S McCall Rd", "address2": "", "address3": null, "city": "Port Charlotte", "zip_code": "33981", "country": "US", "state": "FL", "display_address": ["13435 S McCall Rd", "Port Charlotte, FL 33981"]}, "phone": "+19416978886", "display_phone": "(941) 697-8886", "distance": 12428.869930607463}, {"id": "StjqM_Enthh-ETWlnbY4pQ", "alias": "number-1-wok-punta-gorda", "name": "Number 1 Wok", "image_url": "https://s3-media3.fl.yelpcdn.com/bphoto/3YPYxJCOWo131za3gKNJXw/o.jpg", "is_closed": false, "url": "https://www.yelp.com/biz/number-1-wok-punta-gorda?adjust_creative=IX0BPgmwhVVbGGNYDVN81A&utm_campaign=yelp_api_v3&utm_medium=api_v3_business_search&utm_source=IX0BPgmwhVVbGGNYDVN81A", "review_count": 43, "categories": [{"alias": "chinese", "title": "Chinese"}, {"alias": "thai", "title": "Thai"}], "rating": 3.0, "coordinates": {"latitude": 26.88328, "longitude": -82.01656}, "transactions": ["pickup", "delivery"], "price": "$$", "location": {"address1": "10175 Tamiami Trl", "address2": "Unit 1141", "address3": "", "city": "Punta Gorda", "zip_code": "33950", "country": "US", "state": "FL", "display_address": ["10175 Tamiami Trl", "Unit 1141", "Punta Gorda, FL 33950"]}, "phone": "+19418330299", "display_phone": "(941) 833-0299", "distance": 15754.75716175676}, {"id": "gWn1srX0yhez0BZjDF3K2w", "alias": "luigis-port-charlotte", "name": "Luigi's", "image_url": "https://s3-media3.fl.yelpcdn.com/bphoto/6cUIUSE6ua2cFQm5D3tzvQ/o.jpg", "is_closed": false, "url": "https://www.yelp.com/biz/luigis-port-charlotte?adjust_creative=IX0BPgmwhVVbGGNYDVN81A&utm_campaign=yelp_api_v3&utm_medium=api_v3_business_search&utm_source=IX0BPgmwhVVbGGNYDVN81A", "review_count": 145, "categories": [{"alias": "italian", "title": "Italian"}, {"alias": "pizza", "title": "Pizza"}], "rating": 3.5, "coordinates": {"latitude": 26.9717693328857, "longitude": -82.0859451293945}, "transactions": [], "price": "$$", "location": {"address1": "3883 Tamiami Trl", "address2": "", "address3": "", "city": "Port Charlotte", "zip_code": "33952", "country": "US", "state": "FL", "display_address": ["3883 Tamiami Trl", "Port Charlotte, FL 33952"]}, "phone": "+19416243535", "display_phone": "(941) 624-3535", "distance": 3973.6450945022366}, {"id": "DdZeXTzy5pBY7ukLPzLnqw", "alias": "fuji-sushi-hibachi-noodles-venice-2", "name": "Fuji Sushi Hibachi Noodles", "image_url": "https://s3-media4.fl.yelpcdn.com/bphoto/BO4iU4ChsjFKbv-u_-8Oig/o.jpg", "is_closed": false, "url": "https://www.yelp.com/biz/fuji-sushi-hibachi-noodles-venice-2?adjust_creative=IX0BPgmwhVVbGGNYDVN81A&utm_campaign=yelp_api_v3&utm_medium=api_v3_business_search&utm_source=IX0BPgmwhVVbGGNYDVN81A", "review_count": 50, "categories": [{"alias": "sushi", "title": "Sushi Bars"}, {"alias": "noodles", "title": "Noodles"}, {"alias": "japanese", "title": "Japanese"}], "rating": 3.5, "coordinates": {"latitude": 27.048088, "longitude": -82.3229}, "transactions": ["pickup", "delivery"], "location": {"address1": "12205 Mercado Dr", "address2": null, "address3": "", "city": "Venice", "zip_code": "34293", "country": "US", "state": "FL", "display_address": ["12205 Mercado Dr", "Venice, FL 34293"]}, "phone": "+19414926677", "display_phone": "(941) 492-6677", "distance": 21155.185620326694}, {"id": "AC4Wt3YUUKvcDB5KqLm12g", "alias": "7-eleven-north-port", "name": "7-Eleven", "image_url": "https://s3-media3.fl.yelpcdn.com/bphoto/9Ky45HtuwAEzpb6oDRIpdg/o.jpg", "is_closed": false, "url": "https://www.yelp.com/biz/7-eleven-north-port?adjust_creative=IX0BPgmwhVVbGGNYDVN81A&utm_campaign=yelp_api_v3&utm_medium=api_v3_business_search&utm_source=IX0BPgmwhVVbGGNYDVN81A", "review_count": 5, "categories": [{"alias": "convenience", "title": "Convenience Stores"}, {"alias": "servicestations", "title": "Gas Stations"}, {"alias": "coffee", "title": "Coffee & Tea"}], "rating": 2.5, "coordinates": {"latitude": 27.0704304956157, "longitude": -82.2094729542732}, "transactions": ["pickup", "delivery"], "price": "$", "location": {"address1": "1011 S Sumter Blvd", "address2": "", "address3": "", "city": "North Port", "zip_code": "34287", "country": "US", "state": "FL", "display_address": ["1011 S Sumter Blvd", "North Port, FL 34287"]}, "phone": "+19414292450", "display_phone": "(941) 429-2450", "distance": 12494.655110863001}, {"id": "93-70EExK_5oza_Or8UGFw", "alias": "bob-evans-port-charlotte", "name": "Bob Evans", "image_url": "https://s3-media2.fl.yelpcdn.com/bphoto/URc4JznDP6XB-AB5jrNcgQ/o.jpg", "is_closed": false, "url": "https://www.yelp.com/biz/bob-evans-port-charlotte?adjust_creative=IX0BPgmwhVVbGGNYDVN81A&utm_campaign=yelp_api_v3&utm_medium=api_v3_business_search&utm_source=IX0BPgmwhVVbGGNYDVN81A", "review_count": 31, "categories": [{"alias": "breakfast_brunch", "title": "Breakfast & Brunch"}, {"alias": "tradamerican", "title": "American (Traditional)"}, {"alias": "comfortfood", "title": "Comfort Food"}], "rating": 3.0, "coordinates": {"latitude": 26.9714272539776, "longitude": -82.0832461863756}, "transactions": ["pickup", "delivery"], "price": "$$", "location": {"address1": "4080 Tamiami Trl", "address2": "", "address3": "", "city": "Port Charlotte", "zip_code": "33952", "country": "US", "state": "FL", "display_address": ["4080 Tamiami Trl", "Port Charlotte, FL 33952"]}, "phone": "+19417434909", "display_phone": "(941) 743-4909", "distance": 4216.350985360215}, {"id": "H66CyRQ76e6O4-k9NHH34w", "alias": "olive-garden-italian-restaurant-port-charlotte-3", "name": "Olive Garden Italian Restaurant", "image_url": "https://s3-media2.fl.yelpcdn.com/bphoto/c6vuPrJhV9LM52yCpBMMvA/o.jpg", "is_closed": false, "url": "https://www.yelp.com/biz/olive-garden-italian-restaurant-port-charlotte-3?adjust_creative=IX0BPgmwhVVbGGNYDVN81A&utm_campaign=yelp_api_v3&utm_medium=api_v3_business_search&utm_source=IX0BPgmwhVVbGGNYDVN81A", "review_count": 97, "categories": [{"alias": "italian", "title": "Italian"}, {"alias": "salad", "title": "Salad"}, {"alias": "soup", "title": "Soup"}], "rating": 2.5, "coordinates": {"latitude": 27.012, "longitude": -82.145907}, "transactions": [], "price": "$$", "location": {"address1": "1341 Tamiami Trl", "address2": "", "address3": "", "city": "Port Charlotte", "zip_code": "33948", "country": "US", "state": "FL", "display_address": ["1341 Tamiami Trl", "Port Charlotte, FL 33948"]}, "phone": "+19416258807", "display_phone": "(941) 625-8807", "distance": 3466.4854651558135}, {"id": "fQYesmv-upb8EXJ6E6eshg", "alias": "china-buffet-north-port", "name": "China Buffet", "image_url": "https://s3-media4.fl.yelpcdn.com/bphoto/SClcN1gBmlBa7JQ8iNBdTw/o.jpg", "is_closed": false, "url": "https://www.yelp.com/biz/china-buffet-north-port?adjust_creative=IX0BPgmwhVVbGGNYDVN81A&utm_campaign=yelp_api_v3&utm_medium=api_v3_business_search&utm_source=IX0BPgmwhVVbGGNYDVN81A", "review_count": 47, "categories": [{"alias": "chinese", "title": "Chinese"}, {"alias": "buffets", "title": "Buffets"}], "rating": 2.5, "coordinates": {"latitude": 27.034068, "longitude": -82.211664}, "transactions": [], "price": "$$", "location": {"address1": "4411 Aidan Ln", "address2": null, "address3": null, "city": "North Port", "zip_code": "34287", "country": "US", "state": "FL", "display_address": ["4411 Aidan Ln", "North Port, FL 34287"]}, "phone": "+19414235954", "display_phone": "(941) 423-5954", "distance": 10309.859663800984}, {"id": "XYeazaoXFf5M1dDBt6GC4A", "alias": "china-city-port-charlotte", "name": "China City", "image_url": "https://s3-media2.fl.yelpcdn.com/bphoto/r-WWPA0edv7tGT0mUJvOyQ/o.jpg", "is_closed": false, "url": "https://www.yelp.com/biz/china-city-port-charlotte?adjust_creative=IX0BPgmwhVVbGGNYDVN81A&utm_campaign=yelp_api_v3&utm_medium=api_v3_business_search&utm_source=IX0BPgmwhVVbGGNYDVN81A", "review_count": 33, "categories": [{"alias": "chinese", "title": "Chinese"}], "rating": 3.0, "coordinates": {"latitude": 26.9633464813232, "longitude": -82.0686874389648}, "transactions": ["pickup", "delivery"], "price": "$", "location": {"address1": "4300 Kings Hwy", "address2": "Ste 408", "address3": "", "city": "Port Charlotte", "zip_code": "33980", "country": "US", "state": "FL", "display_address": ["4300 Kings Hwy", "Ste 408", "Port Charlotte, FL 33980"]}, "phone": "+19417649483", "display_phone": "(941) 764-9483", "distance": 5880.3964790194095}, {"id": "7FyHT9S1V2gbOoERv9mFoQ", "alias": "7-eleven-port-charlotte-2", "name": "7-Eleven", "image_url": "https://s3-media3.fl.yelpcdn.com/bphoto/7v4z91T2Z_PogCyzvsq25w/o.jpg", "is_closed": false, "url": "https://www.yelp.com/biz/7-eleven-port-charlotte-2?adjust_creative=IX0BPgmwhVVbGGNYDVN81A&utm_campaign=yelp_api_v3&utm_medium=api_v3_business_search&utm_source=IX0BPgmwhVVbGGNYDVN81A", "review_count": 4, "categories": [{"alias": "convenience", "title": "Convenience Stores"}, {"alias": "servicestations", "title": "Gas Stations"}, {"alias": "coffee", "title": "Coffee & Tea"}], "rating": 2.5, "coordinates": {"latitude": 27.0238522, "longitude": -82.0443446}, "transactions": ["pickup", "delivery"], "price": "$", "location": {"address1": "330 Kings Hwy", "address2": null, "address3": null, "city": "Port Charlotte", "zip_code": "33983", "country": "US", "state": "FL", "display_address": ["330 Kings Hwy", "Port Charlotte, FL 33983"]}, "phone": "+19417667667", "display_phone": "(941) 766-7667", "distance": 8151.980753059215}, {"id": "sHr3WW9QldaATXPZMwEezg", "alias": "publix-super-markets-punta-gorda-4", "name": "Publix Super Markets", "image_url": "https://s3-media2.fl.yelpcdn.com/bphoto/t0R1WwOa21PDV_1ZVpsuIA/o.jpg", "is_closed": false, "url": "https://www.yelp.com/biz/publix-super-markets-punta-gorda-4?adjust_creative=IX0BPgmwhVVbGGNYDVN81A&utm_campaign=yelp_api_v3&utm_medium=api_v3_business_search&utm_source=IX0BPgmwhVVbGGNYDVN81A", "review_count": 25, "categories": [{"alias": "drugstores", "title": "Drugstores"}, {"alias": "grocery", "title": "Grocery"}], "rating": 3.5, "coordinates": {"latitude": 26.91916769999204, "longitude": -82.04668209885303}, "transactions": [], "price": "$$", "location": {"address1": "2310 Tamiami Trl", "address2": "Unit 1129", "address3": null, "city": "Punta Gorda", "zip_code": "33950", "country": "US", "state": "FL", "display_address": ["2310 Tamiami Trl", "Unit 1129", "Punta Gorda, FL 33950"]}, "phone": "+19415754740", "display_phone": "(941) 575-4740", "distance": 10828.967139153103}, {"id": "p1wbJNm5HFBzUMxPISdm8w", "alias": "china-wokery-north-port", "name": "China Wokery", "image_url": "https://s3-media4.fl.yelpcdn.com/bphoto/n5fLZvcuNMvvkhs9e-YRmw/o.jpg", "is_closed": false, "url": "https://www.yelp.com/biz/china-wokery-north-port?adjust_creative=IX0BPgmwhVVbGGNYDVN81A&utm_campaign=yelp_api_v3&utm_medium=api_v3_business_search&utm_source=IX0BPgmwhVVbGGNYDVN81A", "review_count": 20, "categories": [{"alias": "chinese", "title": "Chinese"}], "rating": 3.0, "coordinates": {"latitude": 27.039772, "longitude": -82.220712}, "transactions": ["pickup", "delivery"], "location": {"address1": "14909 Tamiami Trl", "address2": "", "address3": "", "city": "North Port", "zip_code": "34287", "country": "US", "state": "FL", "display_address": ["14909 Tamiami Trl", "North Port, FL 34287"]}, "phone": "+19414261881", "display_phone": "(941) 426-1881", "distance": 11396.530345056599}, {"id": "uQhP4j7clHMNpfv0q1kk9Q", "alias": "china-chef-north-port", "name": "China Chef", "image_url": "https://s3-media4.fl.yelpcdn.com/bphoto/td5brIexnuDc19ap-cglLg/o.jpg", "is_closed": false, "url": "https://www.yelp.com/biz/china-chef-north-port?adjust_creative=IX0BPgmwhVVbGGNYDVN81A&utm_campaign=yelp_api_v3&utm_medium=api_v3_business_search&utm_source=IX0BPgmwhVVbGGNYDVN81A", "review_count": 40, "categories": [{"alias": "chinese", "title": "Chinese"}], "rating": 3.0, "coordinates": {"latitude": 27.0675, "longitude": -82.158755}, "transactions": ["delivery"], "price": "$", "location": {"address1": "1131 S Toledo Blade Blvd", "address2": null, "address3": null, "city": "North Port", "zip_code": "34288", "country": "US", "state": "FL", "display_address": ["1131 S Toledo Blade Blvd", "North Port, FL 34288"]}, "phone": "+19414262388", "display_phone": "(941) 426-2388", "distance": 9244.305126375197}, {"id": "WteOPw7Ys2HPp9Rub5xvLQ", "alias": "7-eleven-north-port-3", "name": "7-Eleven", "image_url": "https://s3-media1.fl.yelpcdn.com/bphoto/VjbxYXLg0wbMSY_ZJEBIiw/o.jpg", "is_closed": false, "url": "https://www.yelp.com/biz/7-eleven-north-port-3?adjust_creative=IX0BPgmwhVVbGGNYDVN81A&utm_campaign=yelp_api_v3&utm_medium=api_v3_business_search&utm_source=IX0BPgmwhVVbGGNYDVN81A", "review_count": 10, "categories": [{"alias": "convenience", "title": "Convenience Stores"}, {"alias": "coffee", "title": "Coffee & Tea"}], "rating": 2.0, "coordinates": {"latitude": 27.093366950741, "longitude": -82.1563804460901}, "transactions": ["pickup", "delivery"], "price": "$", "location": {"address1": "4895 N Toledo Blade Blvd", "address2": null, "address3": null, "city": "North Port", "zip_code": "34286", "country": "US", "state": "FL", "display_address": ["4895 N Toledo Blade Blvd", "North Port, FL 34286"]}, "phone": "+19412029874", "display_phone": "(941) 202-9874", "distance": 11829.721764848437}, {"id": "KXaRTzqENgFA5wA5joNAYQ", "alias": "michelangelos-pizza-and-restaurant-north-port-north-port", "name": "Michelangelo's Pizza & Restaurant - North Port", "image_url": "https://s3-media2.fl.yelpcdn.com/bphoto/a2WkxF7lcU_3kaB7-mTpDQ/o.jpg", "is_closed": false, "url": "https://www.yelp.com/biz/michelangelos-pizza-and-restaurant-north-port-north-port?adjust_creative=IX0BPgmwhVVbGGNYDVN81A&utm_campaign=yelp_api_v3&utm_medium=api_v3_business_search&utm_source=IX0BPgmwhVVbGGNYDVN81A", "review_count": 93, "categories": [{"alias": "pizza", "title": "Pizza"}, {"alias": "italian", "title": "Italian"}], "rating": 3.5, "coordinates": {"latitude": 27.0676162, "longitude": -82.1572606}, "transactions": ["delivery", "pickup"], "price": "$$", "location": {"address1": "1091 S Toledeo Blade Blvd", "address2": "", "address3": "", "city": "North Port", "zip_code": "34288", "country": "US", "state": "FL", "display_address": ["1091 S Toledeo Blade Blvd", "North Port, FL 34288"]}, "phone": "+19414260044", "display_phone": "(941) 426-0044", "distance": 9263.246380895172}, {"id": "tUfAGoEj2vhIAO02pxTbrg", "alias": "china-1-venice-2", "name": "China 1", "image_url": "https://s3-media3.fl.yelpcdn.com/bphoto/Omj-86_-QI5uAEPTtHjn5A/o.jpg", "is_closed": false, "url": "https://www.yelp.com/biz/china-1-venice-2?adjust_creative=IX0BPgmwhVVbGGNYDVN81A&utm_campaign=yelp_api_v3&utm_medium=api_v3_business_search&utm_source=IX0BPgmwhVVbGGNYDVN81A", "review_count": 25, "categories": [{"alias": "chinese", "title": "Chinese"}], "rating": 3.5, "coordinates": {"latitude": 27.0472176435686, "longitude": -82.3225035890937}, "transactions": ["pickup", "delivery"], "location": {"address1": "12189 Mercado Dr", "address2": null, "address3": "", "city": "Venice", "zip_code": "34293", "country": "US", "state": "FL", "display_address": ["12189 Mercado Dr", "Venice, FL 34293"]}, "phone": "+19414932299", "display_phone": "(941) 493-2299", "distance": 21089.548473683233}, {"id": "WbWW2DQKf3jM9d0m1kAftQ", "alias": "china-palace-north-port-north-port", "name": "China Palace - North Port", "image_url": "https://s3-media2.fl.yelpcdn.com/bphoto/dpwiqfNlvUXjY7AuHlUgOQ/o.jpg", "is_closed": false, "url": "https://www.yelp.com/biz/china-palace-north-port-north-port?adjust_creative=IX0BPgmwhVVbGGNYDVN81A&utm_campaign=yelp_api_v3&utm_medium=api_v3_business_search&utm_source=IX0BPgmwhVVbGGNYDVN81A", "review_count": 31, "categories": [{"alias": "chinese", "title": "Chinese"}], "rating": 2.5, "coordinates": {"latitude": 27.0671378, "longitude": -82.2097537}, "transactions": ["pickup", "delivery"], "price": "$", "location": {"address1": "1581 S Sumter Blvd", "address2": "", "address3": "", "city": "North Port", "zip_code": "34287", "country": "US", "state": "FL", "display_address": ["1581 S Sumter Blvd", "North Port, FL 34287"]}, "phone": "+19414291780", "display_phone": "(941) 429-1780", "distance": 12417.275696877216}, {"id": "Ex7dPh7GTQCVWIEqXp5pCA", "alias": "zios-twelve-21-pizzeria-restaurant-and-catering-north-port", "name": "Zio's Twelve 21 Pizzeria Restaurant and Catering", "image_url": "https://s3-media2.fl.yelpcdn.com/bphoto/dXi01pXGfB7ScYwt-NVauQ/o.jpg", "is_closed": false, "url": "https://www.yelp.com/biz/zios-twelve-21-pizzeria-restaurant-and-catering-north-port?adjust_creative=IX0BPgmwhVVbGGNYDVN81A&utm_campaign=yelp_api_v3&utm_medium=api_v3_business_search&utm_source=IX0BPgmwhVVbGGNYDVN81A", "review_count": 84, "categories": [{"alias": "italian", "title": "Italian"}, {"alias": "pizza", "title": "Pizza"}], "rating": 3.5, "coordinates": {"latitude": 27.0696869, "longitude": -82.2087149}, "transactions": ["pickup", "delivery"], "price": "$$", "location": {"address1": "1221 S Sumter Blvd", "address2": "", "address3": "", "city": "North Port", "zip_code": "34287", "country": "US", "state": "FL", "display_address": ["1221 S Sumter Blvd", "North Port, FL 34287"]}, "phone": "+19414269800", "display_phone": "(941) 426-9800", "distance": 12502.809817063484}]